STATE/UT,DISTRICT,TEHSIL/BLOCK ,VILLAGE NAME,SITE NAME,latitude,longitude,WELL SITE TYPE,water_level
,,NAME,,,,,,
,,,,,,,,
Andhra Pradesh,Anantapur,Amarapuram,Palasamudram,Palasamudram,13.9605,77.6761,Dug Well,0.57
Andhra Pradesh,Anantapur,Atmakur,Atmakur,Atmakur-PZ,14.64487,77.3638,Bore Well,3.43
Andhra Pradesh,Anantapur,Atmakur,Waddipalli,Waddipalli,14.67769,77.4562,Dug Well,1.03
Andhra Pradesh,Anantapur,Bukkarayasamudram Korrapadu,,Korrapadu,14.75411,77.71196,Dug Well,1.05
Andhra Pradesh,Anantapur,Bukkarayasamudram Regadikoturu,,Regadikoturu-OW,14.7663889,77.62333,Bore Well,1.67
Andhra Pradesh,Anantapur,Chennakothapalle,Chenna Kothapalli,Chenna Kothapalli-PZ,14.27033,77.6254,Bore Well,3.12
Andhra Pradesh,Anantapur,Dharmavaram,Dharmavaram,Dharmavaram,14.4138,77.71609,Dug Well,1.29
Andhra Pradesh,Anantapur,Dharmavaram,Dharmavaram-Ewl,Dharmavaram-Ewl,14.3864,77.7102,Bore Well,3.4
Andhra Pradesh,Anantapur,Dharmavaram,Dharmavaram-Ewll,Dharmavaram-Ewll,14.3864,77.7102,Bore Well,3.35
Andhra Pradesh,Anantapur,Gooty,Gooty,Gooty-alt,15.1179,77.64,Dug Well,4.83
Andhra Pradesh,Anantapur,Gooty,Gooty,Gooty-PZ,15.1259,77.6346,Bore Well,7.82
Andhra Pradesh,Anantapur,Gudibanda,Budipalli,Budipalli,13.9738,77.1648,Dug Well,3.3
Andhra Pradesh,Anantapur,Gudibanda,Palaram,Palaram 2013DW,13.956,77.1083,Dug Well,2.35
Andhra Pradesh,Anantapur,Guntakal,Guntakal,Guntakal2,15.15571,77.3837,Dug Well,1.27
Andhra Pradesh,Anantapur,Kadiri,Alampur,Alampur,14.194,78.1656,Dug Well,1.21
Andhra Pradesh,Anantapur,Kalyandurg,Kalyandurg-Alt,Kalyandurg-alt,14.5483,77.1071,Dug Well,2.07
Andhra Pradesh,Anantapur,Lepakshi,Kanchisamudram,Kanchisamudram-,13.7752,77.6117,Dug Well,2.2
,Anantapur,,,DW13,,,,
Andhra Pradesh,Anantapur,Madakasira,A Roppam-Pz,A Roppam-Pz,14.0269,77.2737,Bore Well,0.01
Andhra Pradesh,Anantapur,Madakasira,Kothalagutta-Dw,Kothalagutta-DW,13.92059,77.2191,Dug Well,1.22
Andhra Pradesh,Anantapur,Madakasira,Madakasira,Madakasira1,13.9411,77.276,Dug Well,0.6
Andhra Pradesh,Anantapur,Madakasira,Madakasira,Madakasira-PZ,13.9407,77.2632,Bore Well,5.84
Andhra Pradesh,Anantapur,Mudigubba,Adivi Brahmanapalli,Adivi Brahmanapalli,14.3549,78.0366,Dug Well,0.08
Andhra Pradesh,Anantapur,Mudigubba,Malakavemula-Rs,Malakavemula-rs,14.27,78.0575,Dug Well,1.12
Andhra Pradesh,Anantapur,Nallacheruvu,Nallacheruvu,Nallacheruvu ,13.987,78.1878,Dug Well,6.58
Andhra Pradesh,Anantapur,Nallamada,"Muthyalacherevu 
Poolabhavi","Muthyalacherevu 
Poolabhavi-DW14",14.1031,78.0998,Dug Well,0.2
Andhra Pradesh,Anantapur,Obuladevaracheruvu,Ingaluru,Ingaluru,14.04526,78.0388,Dug Well,2.19
Andhra Pradesh,Anantapur,Obuladevaracheruvu,O.D.Cheruvu,O.D.Cheruvu-PZ,14.0217,77.9952,Bore Well,2.7
Andhra Pradesh,Anantapur,Obuladevaracheruvu,Tangdikunta,Tangdikunta-DW13,13.9425,77.9345,Dug Well,1.85
Andhra Pradesh,Anantapur,Penukonda,Penukonda,Penukonda,14.0863,77.5976,Dug Well,4.18
Andhra Pradesh,Anantapur,Puttaparti,Kambalaparthi,Kambalaparthi-DW14 14.1377,,77.9099,Dug Well,2.3
Andhra Pradesh,Anantapur,Rayadurg,Rayadurg,Rayadurg-new,14.7054,76.8484,Dug Well,3.1
Andhra Pradesh,Anantapur,Rolla,Hottebetta-Pz,Hottebetta-Pz,13.881,77.1588,Bore Well,2.05
Andhra Pradesh,Anantapur,Rolla,Kothapalem,Kothapalem,13.8768,77.1462,Dug Well,2.28
Andhra Pradesh,Anantapur,Tadipatri,Tadipatri,Tadipatri-PZ,14.9088,77.9952,Bore Well,9.6
Andhra Pradesh,Anantapur,Talupula,Talapula,Talapula-PZ,14.2421,78.25569,Bore Well,4.84
Andhra Pradesh,Anantapur,Tanakal,Tanakallu,Tanakallu-PZ,13.9171,78.196,Bore Well,6.3
Andhra Pradesh,Anantapur,Uravakonda,Amidala,Amidala,14.851,77.2501,Dug Well,1.7
Andhra Pradesh,Anantapur,Vajrakarur,Vajrakarur,Vajrakarur,15.03043,77.38311,Dug Well,3.76
Andhra Pradesh,Chittoor,Bangarupalem,Govardhanagiri,Govardhanagiri1-,13.162967,78.891431,Bore Well,6.41
,,,,NQM,,,,
Andhra Pradesh,Chittoor,Bangarupalem,Govardhanagiri,Govardhanagiri-NQM,13.162874,78.891378,Bore Well,6.53
Andhra Pradesh,Chittoor,Bangarupalem,Shankrantipalli,Shankrantipalli,13.195626,79.004018,Dug Well,5.08
Andhra Pradesh,Chittoor,Buchinaidu-Kandrika,Nilavai,Nilavai-DW13,13.63705,79.900838,Dug Well,1.46
Andhra Pradesh,Chittoor,Chandragiri,Mungilipattu,Mungilipattu,13.560868,79.249306,Dug Well,3.25
Andhra Pradesh,Chittoor,Chittoor,Chittoor,Chittoor1-NQM,13.1936111,79.0966667,Bore Well,3.27
Andhra Pradesh,Chittoor,Chittoor,Chittoor,Chittoor-2010,13.207501,79.098122,Dug Well,1.69
Andhra Pradesh,Chittoor,Chittoor,Chittoor,Chittoor-NQM,13.2167,79.1028,Bore Well,0.01
Andhra Pradesh,Chittoor,Gudupalle,Nangamangalam,Nangamangalam,13.041167,79.18317,Bore Well,0.55
Andhra Pradesh,Chittoor,Kalakada,Kalakoda,Kalakoda,13.82753,78.78775,Dug Well,4.27
,,NAME,,,,,,LEVEL
,,,,,,,,(mbgl)
Andhra Pradesh,Chittoor,Kalakada,Papireddygaripalli,"Papireddygaripalli-
NQM",13.78668,78.7309,Bore Well,6.2
Andhra Pradesh,Chittoor,Kalikiri,Medikurthi,Medikurthi-NQM,13.70517,78.77318,Bore Well,4.32
Andhra Pradesh,Chittoor,Kalikiri,T.Chandravaripalli,T.Chandravaripalli-,13.72281,78.86358,Bore Well,4.96
,,,,NQM,,,,
Andhra Pradesh,Chittoor,Kammapalli,Balezapalli,BalezapalliDW15,13.521262,79.380715,Dug Well,1.96
Andhra Pradesh,Chittoor,Kuppam,Ammasi Reddy,Ammasi Reddy,13.456562,79.963752,Dug Well,2.25
,,,Kandriga,Kandriga-DW13,,,,
Andhra Pradesh,Chittoor,Kurabalakota,Errapalle,Errapalle-NQM,13.67682,78.46081,Bore Well,7.2
Andhra Pradesh,Chittoor,Kurabalakota,Kurabalakota,Kurabalakota-NQM,13.65967,78.48868,Bore Well,2.45
Andhra Pradesh,Chittoor,Madanapalle,Arogyavaram,Arogyavaram,13.59343,78.52698,Dug Well,5.95
Andhra Pradesh,Chittoor,Madanapalle,Basani Khonda,Basani Khonda-,13.55127,78.52983,Dug Well,1.35
,,,,DW14,,,,
Andhra Pradesh,Chittoor,Madanapalle,Danduvaripalle,Danduvaripalle-NQM,13.51068,78.47652,Bore Well,22.13
Andhra Pradesh,Chittoor,Madanapalle,Madanapalle,Madanapalle-NQM,13.55638,78.50148,Bore Well,13.55
Andhra Pradesh,Chittoor,Nagalapuram,Baitakodiambedu,Baitakodiambedu-,13.369534,79.814331,Dug Well,4.32
,,,,DW13,,,,
Andhra Pradesh,Chittoor,Nagalapuram,Nagalapuram,Nagalapuram-DW13,13.395473,79.777029,Dug Well,1.74
Andhra Pradesh,Chittoor,Nimmanapalle,Chintaparti,Chintaparti-1,13.64421,78.70485,Dug Well,0.25
Andhra Pradesh,Chittoor,Nimmanapalle,Nimmanapalle,Nimmanapalle-NQM,13.57053,78.66868,Bore Well,0.8
Andhra Pradesh,Chittoor,Pakala,Damalcheruvu,Damalcheruvu,13.478035,79.048154,Dug Well,1.98
Andhra Pradesh,Chittoor,Palamaner,Duginevaripalli,Duginevaripalli,13.147758,78.661174,Dug Well,1.7
Andhra Pradesh,Chittoor,Palamaner,M.Kotur,M.Kotur-NQM,13.103692,78.752912,Bore Well,2.31
Andhra Pradesh,Chittoor,Palamaner,Palamaneru,Palamaneru-2,13.1990988,78.7451436,Dug Well,0.25
Andhra Pradesh,Chittoor,Palamaner,T.Vodduru,T.Vodduru1-NQM,13.1763889,78.7497222,Bore Well,5.6
Andhra Pradesh,Chittoor,Palamaner,T.Vodduru,T.Vodduru-NQM,13.176582,78.749927,Bore Well,8.1
,,NAME,,,,,,LEVEL
,,,,,,,,(mbgl)
Andhra Pradesh,Chittoor,"Peddatippasamudra
m",Pulikallu,Pulikallu-NQM,13.7738,78.22435,Bore Well,0.45
Andhra Pradesh,Chittoor,Pulicherla,Marriguntalagani Palli,Marriguntalagani,13.568648,79.01537,Dug Well,3.23
,,,,Palli,,,,
Andhra Pradesh,Chittoor,Punganur,Idegepalli,Idegepalli-NQM,13.470248,78.538429,Bore Well,10.4
Andhra Pradesh,Chittoor,Puthalapattu,Bandarapalli,Bandarapalli-DW13,13.331324,79.099552,Dug Well,2.5
Andhra Pradesh,Chittoor,Puthalapattu,Kanipakam,Kanipakam-DW14,13.262268,79.060404,Dug Well,1.16
Andhra Pradesh,Chittoor,Puttur,Puttur,Puttur 2014 DW,13.444717,79.551048,Dug Well,0.01
Andhra Pradesh,Chittoor,Ramakuppam,Govindapalle,Govindapalle-NQM,12.815605,78.456067,Bore Well,7.38
Andhra Pradesh,Chittoor,Ramasamudram,Chokkandapalle,Chokkandapalle-,13.32548,78.45216,Bore Well,18.35
,,,,NQM,,,,
Andhra Pradesh,Chittoor,Ramasamudram,Ramasamudram,Ramasamudram-,13.36429,78.4271,Dug Well,0.01
,,,,DW15,,,,
Andhra Pradesh,Chittoor,Renigunta,Guntuvaripalli,Guntuvaripalli-DW13,13.6514,79.5425,Dug Well,2.65
Andhra Pradesh,Chittoor,Rompicherla,Rompicherla,Rompicherla1-NQM,13.67,79.0436111,Bore Well,11.48
Andhra Pradesh,Chittoor,Rompicherla,Rompicherla,Rompicherla-NQM,13.670268,79.043764,Bore Well,10.4
Andhra Pradesh,Chittoor,Satyavedu,Madambedu,Madambedu-DW14,13.411464,79.928591,Dug Well,6.99
Andhra Pradesh,Chittoor,Sodum,Battuvaripalli,Battuvaripalli,13.547094,78.916628,Dug Well,1.25
Andhra Pradesh,Chittoor,Sodum,Gundlurivaripalle,Gundlurivaripalle1-,13.554438,78.897996,Bore Well,11.03
,,,,NQM,,,,
Andhra Pradesh,Chittoor,Sodum,Gundlurivaripalle,Gundlurivaripalle-,13.554438,78.897996,Bore Well,11.25
,,,,NQM,,,,
Andhra Pradesh,Chittoor,Somala,Burujupalle,Burujupalle1-NQM,13.5297222,78.7855556,Bore Well,15.38
Andhra Pradesh,Chittoor,Somala,Burujupalle,Burujupalle-NQM,13.529724,78.785763,Bore Well,14.3
Andhra Pradesh,Chittoor,Somala,Somala,Somala1-NQM,13.47687,78.810551,Bore Well,11.94
Andhra Pradesh,Chittoor,Somala,Somala,Somala2-NQM,13.47687,78.810551,Bore Well,12.26
,,NAME,,,,,,LEVEL
,,,,,,,,(mbgl)
Andhra Pradesh,Chittoor,Srikalahasthi,Erpedu,Erpedu1,13.697156,79.594039,Dug Well,0.78
Andhra Pradesh,Chittoor,Srikalahasthi,Srikalahasthi,Srikalahasthi,13.752364,79.702453,Dug Well,2.04
,,,,2013DW,,,,
Andhra Pradesh,Chittoor,Srirangarajupuram,Arumakapalli,Arumakapalli-DW14,13.303271,79.287134,Dug Well,7.18
Andhra Pradesh,Chittoor,Thambalapalle,Kandlamadugu,Kandlamadugu,13.66631,78.41837,Dug Well,0.93
Andhra Pradesh,Chittoor,Tirupati(R),Suritipalli,Suritipalli,13.3354,79.872994,Dug Well,0.31
Andhra Pradesh,Chittoor,Tirupati(R),Tayyuru,Tayyuru,13.302892,79.311273,Dug Well,5.3
Andhra Pradesh,Chittoor,Tirupati(R),Tirumala,Tirumala1,13.684841,79.344625,Dug Well,2.8
Andhra Pradesh,Chittoor,Tirupati(U),Tirupati(U),Tirupati(U),13.642481,79.421505,Dug Well,3.94
Andhra Pradesh,Chittoor,Varadaiahpalem,Chinna Panduru,Chinna panduru,13.54444,79.941657,Dug Well,0.61
Andhra Pradesh,Chittoor,Vayalpadu,Thurukupalli,Thurukupalli-DW14,13.62377,78.69937,Dug Well,1.6
Andhra Pradesh,Chittoor,Vedurukuppam,Karvetnagar,Karvetnagar1,13.426237,79.453139,Dug Well,3.82
Andhra Pradesh,Chittoor,Venkatagirikota,Bairupalli,Bairupalli-NQM,12.963173,78.507393,Bore Well,3.61
Andhra Pradesh,Chittoor,Venkatagirikota,Venkatagirikota,Venkatagirikota,13.000809,78.479339,Dug Well,4.67
Andhra Pradesh,Chittoor,Yadamarri,Muddu Rampuram,Muddu Rampuram-,13.109653,78.995284,Dug Well,3.55
,,,,DW13,,,,
Andhra Pradesh,Chittoor,Yerpedu,Yerpedu,Palem-DW14,13.820228,79.584794,Dug Well,1.42
Andhra Pradesh,Cuddapah,Brahmamgarimatha,Chaudarivaripalli,Chaudarivaripalli,14.832012,78.95212,Dug Well,1.75
,,m,,DW13,,,,
Andhra Pradesh,Cuddapah,"Brahmamgarimatha
m",Chowkpalli,Chowkpalli DW13,14.89482,78.923965,Dug Well,2.55
Andhra Pradesh,Cuddapah,"Brahmamgarimatha
m",Mallegudupadu,Mallegudupadu,14.793098,78.978771,Bore Well,0.02
Andhra Pradesh,Cuddapah,"Brahmamgarimatha
m",Vbmatham,Vbmatham,14.820872,78.87815,Dug Well,1.97
Andhra Pradesh,Cuddapah,Chakrayapeta,Mahadevpalle,Mahadevpalle,14.209781,78.517905,Bore Well,2.23
Andhra Pradesh,Cuddapah,Chapad,Alludupally,Alludupally,14.71928,78.677051,Dug Well,2.29
Andhra Pradesh,Cuddapah,Chapad,Alludupally,Alludupally1,14.719086,78.676753,Bore Well,4.89
Andhra Pradesh,Cuddapah,Chapad,Vishwanathpuram,Vishwanathpuram,14.725289,78.707497,Dug Well,2.45
,,,,DW13,,,,
,,NAME,,,,,,LEVEL
,,,,,,,,(mbgl)
Andhra Pradesh,Cuddapah,Chinnamandyam,Chinnamandyam,Chinnamandyam,13.94948,78.68845,Bore Well,2.23
Andhra Pradesh,Cuddapah,D.Kodur,Mallepalle,Mallepalle,14.8889,78.880741,Dug Well,3.5
Andhra Pradesh,Cuddapah,Duvvur,Kanagudur,Kanagudur-DW14,14.916618,78.617621,Dug Well,1.35
Andhra Pradesh,Cuddapah,Galiveedu,Galiveedu,Galiveedu-alt,14.02485,78.50271,Dug Well,0.75
Andhra Pradesh,Cuddapah,Galiveedu,Nakkalavandlapalli,Nakkalavandlapalli-,14.03883,78.54328,Bore Well,1.45
,,,,EW,,,,
Andhra Pradesh,Cuddapah,Jammalamadugu,Jammalamadugu,Jammalamadugu-,14.85227,78.387915,Dug Well,4.1
,,,,DW14,,,,
Andhra Pradesh,Cuddapah,Kamalapuram,Chadipirala T,Chadipirala T-DW14,14.52212,78.63696,Dug Well,0.85
Andhra Pradesh,Cuddapah,Khazipet,Pathur,Pathur DW13,14.647221,78.775095,Dug Well,1.9
Andhra Pradesh,Cuddapah,Kodur,Koduru,Koduru-DW13,13.95871,79.35315,Dug Well,5.15
Andhra Pradesh,Cuddapah,Kodur,Prabhalaveedu,Prabhalaveedu,14.79255,79.009114,Bore Well,1.45
Andhra Pradesh,Cuddapah,Kodur,Sagileru,Sagileru,14.950724,78.95489,Bore Well,10.02
Andhra Pradesh,Cuddapah,Kondapuram,Donkapalli Satram,Donkapalli Satram-,14.731518,78.14634,Dug Well,2.35
,,,,DW13,,,,
Andhra Pradesh,Cuddapah,Lakkireddipalle,Lakkireddipalli,Lakkireddipalli,14.1966667,78.7313889,Dug Well,3.77
Andhra Pradesh,Cuddapah,Lingala,Diguva Lingala,Diguva lingala,14.497139,78.115782,Dug Well,5.8
Andhra Pradesh,Cuddapah,Mylavaram,Talamanchipatnm,Talamanchipatnm,14.94489,78.311803,Dug Well,0.97
Andhra Pradesh,Cuddapah,Obulavaripalle,G.Venkatapuram,G.Venkatapuram OW 14.0142,,79.2372,Bore Well,31.91
,,,,AQ II,,,,
Andhra Pradesh,Cuddapah,Obulavaripalle,Mangampet,Mangampet-EW-AQI,14.04102,79.30847,Bore Well,3.1
Andhra Pradesh,Cuddapah,Penagalur,Reddivaripally,Reddivaripally,14.32187,79.28923,Bore Well,2.76
Andhra Pradesh,Cuddapah,Penagalur,Vadipalli Brahmagari,Vadipalli Brahmagari,14.24839,79.23571,Bore Well,12.26
,,,Devalayam,Devalayam,,,,
Andhra Pradesh,Cuddapah,Pullampet,Ananthasamudram,Ananthasamudram,14.06556,79.16972,Bore Well,8.48
Andhra Pradesh,Cuddapah,Pullampet,Ananthasamudram,Ananthasamudram,14.06523,79.16967,Bore Well,8.48
,,,,OW AQ II,,,,
,,NAME,,,,,,LEVEL
,,,,,,,,(mbgl)
Andhra Pradesh,Cuddapah,Pullampet,Pullampeta,"Pullampet EW of AQ
II",14.12081,79.21148,Bore Well,5.88
Andhra Pradesh,Cuddapah,Rajampet,Gundluru,Gundluru EW AQ I,14.25071,79.11377,Bore Well,2.66
Andhra Pradesh,Cuddapah,Rajampet,Kamapally,Kamapally EW AQ I,14.18908,79.00881,Bore Well,11.5
Andhra Pradesh,Cuddapah,Ramapuram,Ramapuram,Ramapuram1,14.19364,78.76031,Bore Well,4.89
Andhra Pradesh,Cuddapah,Rf,Guvvalacheruvu,Guvvalacheruvu,14.29693,78.7523,Dug Well,2.23
Andhra Pradesh,Cuddapah,Sandepalle,Konnidigaripalli,Konnidigaripalli,13.98899,78.95367,Dug Well,6.8
,,,,DW13,,,,
Andhra Pradesh,Cuddapah,Simhadripuram,Sunkesula,Sunkesula-NQM,14.65215,78.211649,Bore Well,1.15
Andhra Pradesh,Cuddapah,T.Sundupalle,Pincha,Pincha,13.91567,78.99868,Dug Well,5.57
Andhra Pradesh,Cuddapah,Veeraballe,Sanipai,Sanipai,14.10753,78.94972,Dug Well,2.05
Andhra Pradesh,Cuddapah,Veerapanayanipalle,Kommadi,Kommadi,14.546137,78.441925,Bore Well,3.25
Andhra Pradesh,Cuddapah,Veerapanayanipalle,N.Pallagiri,N.Pallagiri,14.457134,78.442387,Bore Well,4.41
Andhra Pradesh,Cuddapah,Vempalle,Idupulapaya,Idupulapaya-DW14,14.334347,78.53285,Dug Well,4.49
Andhra Pradesh,Cuddapah,Vempalle,Tallapalli,Tallapalli,14.373301,78.388035,Bore Well,2.7
Andhra Pradesh,Cuddapah,Vemula,V.Kottapalli,V.Kottapalli-NQM,14.370006,78.358853,Bore Well,3.98
Andhra Pradesh,East Godavari,Addatigala,Addateegala,Addateegala,17.4633,82.0271,Dug Well,8.26
Andhra Pradesh,East Godavari,Addatigala,Mallavaram Mammilu,Mallavaram,17.5032,82.0124,Dug Well,4.38
,,,,Mammilu-DW14,,,,
Andhra Pradesh,East Godavari,Addatigala,Veerbhadrapuram,Veerbhadrapuram-,17.4379,82.074,Dug Well,1.67
,,,,DW13,,,,
Andhra Pradesh,East Godavari,Ainavilli,Ainavilli,Ainavilli-DW14,16.6613,82.0125,Dug Well,1.71
Andhra Pradesh,East Godavari,Ainavilli,Mukteshwaram,Mukteshwaram-,16.6602,82.0246,Dug Well,6.63
,,,,DW14,,,,
Andhra Pradesh,East Godavari,Ainavilli,Vilasa,Vilasa-DW14,16.6187,82.0195,Dug Well,0.92
Andhra Pradesh,East Godavari,Amalapuram,Amalapuram,Amalapuram,16.562,81.9956,Dug Well,1.2
Andhra Pradesh,East Godavari,Amalapuram,Amalapuram,Amalapuram-PZ,16.5734,82.0051,Bore Well,1.74
,,NAME,,,,,,LEVEL
,,,,,,,,(mbgl)
Andhra Pradesh,East Godavari,Amalapuram,Bandurlanka,Bandurlanka-DW13,16.5882,81.9738,Dug Well,3.8
Andhra Pradesh,East Godavari,Ambajupeta,Ambajipeta,Ambajipeta-DW13,16.5933,81.9523,Dug Well,3.35
Andhra Pradesh,East Godavari,Ambajupeta,Chinalanka,Chinalanka-DW13,16.6544,81.9381,Dug Well,2.18
Andhra Pradesh,East Godavari,Atreyapuram,Atreyapuram,Atreyapuram-NQM,16.8319,81.7872,Bore Well,8.79
Andhra Pradesh,East Godavari,Atreyapuram,Dowalaiswaram -3,Dowalaiswaram -PZ3,16.9392,81.7866,Tube Well,8.12
Andhra Pradesh,East Godavari,Atreyapuram,Rally,Rally-DW14,16.7796,81.8027,Dug Well,5.17
Andhra Pradesh,East Godavari,Devipatnam,Chinna Ramanayapet,Chinna Ramanayapet- 17.3235,,81.6974,Dug Well,1.9
,,,,DW13,,,,
Andhra Pradesh,East Godavari,Gangavaram,Gangavaram,Gangavaram1,17.3875,81.9152778,Dug Well,5
Andhra Pradesh,East Godavari,Gangavaram,Jaderu,Jaderu-DW14,17.4805,81.9523,Dug Well,1.92
Andhra Pradesh,East Godavari,Gokavaram,Bhavugipet,Bhavugipet-DW13,17.2083,81.8467,Dug Well,4.1
Andhra Pradesh,East Godavari,Gokavaram,Gokavaram,Gokavaram,17.2653,81.8475,Dug Well,2.74
Andhra Pradesh,East Godavari,Gollaprolu,Gollaprolu,Gollaprolu,17.1538,82.2864,Dug Well,1.61
Andhra Pradesh,East Godavari,I.Polavaram,Komaragiri,Komaragiri-DW14,16.6963,82.1802,Dug Well,1.41
Andhra Pradesh,East Godavari,I.Polavaram,Muramalla,Muramalla 2013DW,16.6728,82.165,Dug Well,2.05
Andhra Pradesh,East Godavari,I.Polavaram,Yanam,Yanam,16.7294,82.2141,Dug Well,2.3
Andhra Pradesh,East Godavari,Kakinada(R),Chollangi,Chollangi-DW13,16.8854,82.2339,Dug Well,1.4
Andhra Pradesh,East Godavari,Kakinada(R),Repuru,Repuru-DW14,16.9557,82.1893,Dug Well,1.37
Andhra Pradesh,East Godavari,Kakinada(R),Vakalpudi,Vakalpudi,17.0137,82.2835,Dug Well,0.41
Andhra Pradesh,East Godavari,Kakinada(U),Anjaneyanagar,Anjaneyanagar 2012,17.0094,82.2482,Dug Well,1.5
Andhra Pradesh,East Godavari,Kakinada(U),Fishing Horbour,Fishing Horbour 2012,16.985,82.2757,Dug Well,1.3
Andhra Pradesh,East Godavari,Kakinada(U),Kakinada-Pz,Kakinada-Pz,16.9833,82.2491,Bore Well,13
Andhra Pradesh,East Godavari,Kakinada(U),Kasinadhapuram,Kasinadhapuram,16.9248,82.236,Dug Well,1.25
,,,,2012,,,,
,,NAME,,,,,,LEVEL
,,,,,,,,(mbgl)
Andhra Pradesh,East Godavari,Kakinada(U),Santhacheruvu,Santhacheruvu 2012,16.9503,82.237,Dug Well,1.15
Andhra Pradesh,East Godavari,Kakinada(U),Thimmapuram,Thimmapuram-NQM,17.024,82.2419,Bore Well,2.04
Andhra Pradesh,East Godavari,Kotananduru,Jaldam,Jaldam-DW14,17.4486,82.3317,Dug Well,2.67
Andhra Pradesh,East Godavari,Kothapalle,Uppada,Uppada,17.0805,82.3355,Dug Well,0.86
Andhra Pradesh,East Godavari,Kothapeta,Kothapeta,Kothapeta-DW13,16.7159,81.8964,Dug Well,4.4
Andhra Pradesh,East Godavari,Madapeta,Dwarapudi,Dwarapudi-DW13,16.927,81.9167,Dug Well,1.5
Andhra Pradesh,East Godavari,Malikipuram,Malikipuram,Malikipuram,16.4135,81.8047,Dug Well,1.65
,,,,2013DW,,,,
Andhra Pradesh,East Godavari,Malikipuram,Sakhinetipalli,Sakhinetipalli1-NQM,16.4077,81.7513,Bore Well,23.2
Andhra Pradesh,East Godavari,Malikipuram,Sakhinetipalli,Sakhinetipalli2-NQM,16.4077,81.7513,Bore Well,18.04
Andhra Pradesh,East Godavari,Mamidikuduru,Appanapalle,Appanapalle-DW14,16.5307,81.9234,Dug Well,3.4
Andhra Pradesh,East Godavari,Maredumilli,Maredumilli,Maredumilli,17.5959,81.7149,Dug Well,4.39
Andhra Pradesh,East Godavari,Mummidivaram,Mobalacheruvu,Mobalacheruvu-,16.6165,82.0731,Dug Well,1.52
,,,,DW14,,,,
Andhra Pradesh,East Godavari,Mummidivaram,Mummadivaram,Mummadivaram-,16.6442,82.1014,Bore Well,13.27
,,,,NQM,,,,
Andhra Pradesh,East Godavari,Mummidivaram,Thanelankapalli,Thanelankapalli,16.6562,82.1221,Dug Well,1.6
Andhra Pradesh,East Godavari,Pamarru,Kotipalli,Kotipalle-DW14,16.6998,82.038,Dug Well,1.05
Andhra Pradesh,East Godavari,Pithapuram,Pithapuram,Pithapuram,17.113,82.2599,Dug Well,0.4
Andhra Pradesh,East Godavari,Pithapuram,Pithapuram,Pithapuram-DW13,16.404601,81.805816,Dug Well,1.27
Andhra Pradesh,East Godavari,Prathipadu,Dharmavaram,Dharmavaram-DW14,17.227,82.2285,Dug Well,3.45
Andhra Pradesh,East Godavari,Prathipadu,Pattipadu,Pattipadu,17.2302,82.1986,Dug Well,3.54
Andhra Pradesh,East Godavari,Rajahmundry(U),Rajahmundry,"Rajmundry Main 
road 2013DW",16.9915,81.7776,Dug Well,1.75
,,NAME,,,,,,LEVEL
,,,,,,,,(mbgl)
Andhra Pradesh,East Godavari,Rajahmundry(U),Rajahmundry,"Rajmundry 
Swarajyanagar
2013DW",16.9726,81.7851,Dug Well,2.68
Andhra Pradesh,East Godavari,Rajahmundry(U),Rajahmundry(U),Rajahmundry DW12,17.0129,81.7828,Dug Well,2.52
Andhra Pradesh,East Godavari,Rajanagaram,Anaparthy,Anaparthy,16.9384,81.9542,Dug Well,2.71
Andhra Pradesh,East Godavari,Rajanagaram,Kolamuru,Kolamuru 2013DW,17.0595,81.8051,Dug Well,3.4
Andhra Pradesh,East Godavari,Rajanagaram,Rajanagaram,Rajanagaram,17.083,81.9065,Dug Well,2.33
Andhra Pradesh,East Godavari,Rajavommangi,Badadanapalli,Badadanapalli-DW14,17.5841,82.2685,Dug Well,2.75
Andhra Pradesh,East Godavari,Rajavommangi,Jaddangi,Jaddangi-alt,17.4855,82.1582,Dug Well,4.51
Andhra Pradesh,East Godavari,Rajavommangi,Lagarai,Lagarai-DW14,17.5735,82.1922,Dug Well,2.93
Andhra Pradesh,East Godavari,Rajavommangi,Rajaumangai-Alt,Rajavommangi-alt,17.5408,82.2229,Dug Well,1.95
Andhra Pradesh,East Godavari,Ramachandrapuram,Annaipeta,Annaipeta-DW13,16.7898,82.066,Dug Well,1.43
Andhra Pradesh,East Godavari,Ramachandrapuram,Draksharamam,Draksharamam-,16.7921,82.0637,Dug Well,3.22
,,,,DW14,,,,
Andhra Pradesh,East Godavari,Ramachandrapuram,Tallapolam,Tallapolam-DW13,16.8168,82.0391,Dug Well,1.62
Andhra Pradesh,East Godavari,Ramachandrapuram,Vegayammapeta,Vegayammapeta,16.7811,82.082,Dug Well,1.83
Andhra Pradesh,East Godavari,Rampachodavaram,Folkspeta,Folkspeta-DW13,17.3139,81.8398,Dug Well,2.9
Andhra Pradesh,East Godavari,Rampachodavaram,Rampachodavaram,Rampachodavaram2,17.4402,81.7805,Dug Well,8.05
Andhra Pradesh,East Godavari,Rampachodavaram,Selkavedhi,Selkavedhi-DW14,17.4613,81.671,Dug Well,4.12
Andhra Pradesh,East Godavari,Rampachodavaram,Sitapalli,Sitapalli,17.3762,81.7915,Dug Well,2.58
Andhra Pradesh,East Godavari,Rangampeta,Kotapadu,Kotapadu 2013DW,17.0883,82.025,Dug Well,4.3
Andhra Pradesh,East Godavari,Ravulapalem,Delta Gannavarm,Delta gannavarm,16.5879,81.8885,Dug Well,2.29
Andhra Pradesh,East Godavari,Ravulapalem,Jonnada,Jonnada,16.7929,81.8659,Dug Well,0.3
,,NAME,,,,,,LEVEL
,,,,,,,,(mbgl)
Andhra Pradesh,East Godavari,Ravulapalem,Mummidivarampad,Mummidivarampad,16.7029,81.8325,Dug Well,1.15
Andhra Pradesh,East Godavari,Ravulapalem,Ravulapalem,Ravulapalem-NQM,16.7528,81.8397,Bore Well,9.01
Andhra Pradesh,East Godavari,Razole,Razole,Razole-alt1,16.48,81.8446,Dug Well,2.12
Andhra Pradesh,East Godavari,Sakhinetipalle,Antarvedi,Antarvedi 2013DW,16.3337,81.7332,Dug Well,1.3
Andhra Pradesh,East Godavari,Sankhavaram,G Kottapalli,G Kottapalli-DW14,17.3068,82.3655,Dug Well,0.77
Andhra Pradesh,East Godavari,Sankhavaram,Kattipudi,Kattipudi1,17.2429,82.3314,Dug Well,2.6
Andhra Pradesh,East Godavari,Tallarevu,Tallarevu,Tallarevu 2013DW,16.7828,82.2303,Dug Well,2.08
Andhra Pradesh,East Godavari,Tallarevu,Thurpet,Thurpet-DW14,16.7529,82.2289,Dug Well,1.52
Andhra Pradesh,East Godavari,Thondangi,Tammayyapeta,Tammayyapeta-,17.2496,82.3708,Dug Well,2.1
,,,,DW13,,,,
Andhra Pradesh,East Godavari,Tuni,Hamsavaram,Hamsavaram-DW13,17.2921,82.4927,Dug Well,1.3
Andhra Pradesh,East Godavari,Tuni,Tetagunda,Tetagunda-DW13,17.307,82.4429,Dug Well,3.78
Andhra Pradesh,East Godavari,Y.Ramavaram,Chaviti Tibalu,Chaviti Tibalu-DW14,17.6183,81.9854,Dug Well,1.05
Andhra Pradesh,East Godavari,Y.Ramavaram,P Yerragonda,P Yerragonda-DW14,17.6583,81.9492,Dug Well,4.32
Andhra Pradesh,East Godavari,Yeleswaram,Gontuvanipalem,Gontuvanipalem ,17.315367,82.103371,Dug Well,1.3
,,,,2013DW,,,,
Andhra Pradesh,Guntur,Amaravati,Amravathi-Dw,Amravathi-Dw,16.5733,80.3612,Dug Well,1.27
Andhra Pradesh,Guntur,Amaravati,Narakullapodu,Narakullapodu-DW14 16.5329,,80.3663,Dug Well,2.09
Andhra Pradesh,Guntur,Amaravati,Ungutur,Ungutur,16.4941,80.3645,Dug Well,1.85
Andhra Pradesh,Guntur,Amaravati,Zupudi,Zupudi,16.5661,80.2572,Dug Well,2.43
Andhra Pradesh,Guntur,Amruthaluru,Govada,Govada,16.0701,80.667,Dug Well,2.47
Andhra Pradesh,Guntur,Amruthaluru,Kuchipudi,Kuchipudi,16.1847,80.6595,Dug Well,0.96
Andhra Pradesh,Guntur,Atchampeta,Krosur,Krosur,16.5429,80.1393,Dug Well,2.25
Andhra Pradesh,Guntur,Bapatla,Bapatla-Dw,Bapatla-Dw,15.9159,80.4824,Dug Well,2.77
Andhra Pradesh,Guntur,Bapatla,Cheruvu Jamulapalem,Cheruvu ,15.9354,80.445,Dug Well,2.97
,,,,Jamulapalem,,,,
,,NAME,,,,,,LEVEL
,,,,,,,,(mbgl)
Andhra Pradesh,Guntur,Battiprolu,Bhattiprolu,Bhattiprolu1-NQM,16.097266,80.786297,Bore Well,8.7
Andhra Pradesh,Guntur,Battiprolu,Bhattiprolu,Bhattiprolu2-NQM,15.725602,80.005206,Bore Well,7.8
Andhra Pradesh,Guntur,Battiprolu,Bhattiprolu,Bhattiprolu-NQM,16.0974,80.7865,Bore Well,8
Andhra Pradesh,Guntur,Battiprolu,Bhattiprolu-Dw,Bhattiprolu-Dw,16.0966,80.7733,Dug Well,3.03
Andhra Pradesh,Guntur,Bellamkonda,Bellamkonda,Bellamkonda-DW13,16.4922,80.0076,Dug Well,7.89
Andhra Pradesh,Guntur,Bellamkonda,Utukuru,Utukuru,16.566,80.2018,Dug Well,1.95
Andhra Pradesh,Guntur,Chebrolu,Chebrolu,Chebrolu,16.1986,80.5257,Dug Well,0.7
Andhra Pradesh,Guntur,Chebrolu,Narakoduru,Narakoduru,16.22562,80.514537,Dug Well,1.96
Andhra Pradesh,Guntur,Cherukupalle,Punnapalle,Punnapalle-DW14,16.061115,80.701225,Dug Well,2.63
Andhra Pradesh,Guntur,Cherukupalle,Yemminenivaripalem,Yemminenivaripalem- 16.0949,,80.7852,Bore Well,5.7
,,,,NQM,,,,
Andhra Pradesh,Guntur,Chilakaluripeta,Chilkaluripet,Chilkaluripet-1,16.0851,80.1765,Dug Well,1.25
Andhra Pradesh,Guntur,Chilakaluripeta,Maddirala,Maddirala-DW14,16.0947,80.0909,Dug Well,2.85
Andhra Pradesh,Guntur,Chilakaluripeta,Timmapuram-Dw,Timmapuram-Dw,16.1491,80.2048,Dug Well,4.58
Andhra Pradesh,Guntur,Dachepalle,Dachepalli-Alt,Dachepalli-Alt,16.6002,79.7259,Dug Well,4.05
Andhra Pradesh,Guntur,Duggirala,Kolakaluru,Kolakaluru,16.3034,80.6189,Dug Well,2.03
Andhra Pradesh,Guntur,Guntur,Budampadu-Dw,Budampadu-Dw,16.26,80.4746,Dug Well,3.8
Andhra Pradesh,Guntur,Guntur,Etukunu,Etukunu-DW14,16.2632,80.4247,Dug Well,1.93
Andhra Pradesh,Guntur,Guntur,Guntur,Guntur,16.2985,80.4317,Dug Well,2.4
Andhra Pradesh,Guntur,Guntur,Nallapadu,Nallapadu,16.3057,80.3739,Dug Well,2.26
Andhra Pradesh,Guntur,Guntur,Phanidharam,Phanidharam,16.361433,80.393346,Dug Well,3.66
Andhra Pradesh,Guntur,Gurajala,Gurajala,Gurazala 2010Pz,16.5616,79.6467,Bore Well,4.12
Andhra Pradesh,Guntur,Gurajala,Gurzala,Gurzala,16.558,79.6325,Dug Well,0.19
Andhra Pradesh,Guntur,Ipur,A Muppalla,A Muppalla-DW14,16.2434,79.8415,Dug Well,2.1
Andhra Pradesh,Guntur,Ipur,Ipur,Ipur,16.226,79.7768,Dug Well,0.73
Andhra Pradesh,Guntur,Ipur,Kocherla,Kocherla,16.1492,79.7582,Dug Well,0.15
Andhra Pradesh,Guntur,Kollipara,Athota,Athota1-NQM,16.3003,80.6836,Bore Well,3.15
Andhra Pradesh,Guntur,Kollipara,Athota,Athota-NQM,16.3003,80.6836,Bore Well,1.8
Andhra Pradesh,Guntur,Kollipara,Kollipara Dw,Kollipara Dw,16.2866,80.7496,Dug Well,1.09
Andhra Pradesh,Guntur,Kollur,Kolluru-Ravikampadu,Kolluru-DW14,16.1308,80.8171,Dug Well,1.68
,,NAME,,,,,,LEVEL
,,,,,,,,(mbgl)
Andhra Pradesh,Guntur,Krosuru,Pisapadu,Pisapadu,16.4979,80.1431,Dug Well,3.4
Andhra Pradesh,Guntur,Machavaram,Murjampadu,Murjampadu,16.5906,79.9084,Dug Well,5.65
Andhra Pradesh,Guntur,Macherla,Macherla,Macherla Pz,16.4676,79.4272,Bore Well,14.4
Andhra Pradesh,Guntur,Macherla,Vijayapuri,Vijayapuri 2012Pz,16.5598,79.3143,Bore Well,3.52
Andhra Pradesh,Guntur,Medikonduru,Medikondur,Medikondur,16.3455,80.3023,Dug Well,2.92
Andhra Pradesh,Guntur,Muppala,Gollapadu,Gollapadu DW13,16.3067,80.0833,Dug Well,1.9
Andhra Pradesh,Guntur,Nadendla,Nadendla,Nadendla-DW14,16.1762,80.1843,Dug Well,2.7
Andhra Pradesh,Guntur,Narsaraopet,Jonnalagadda,Jonnalagadda-DW14,16.2418,80.0829,Dug Well,1.49
Andhra Pradesh,Guntur,Narsaraopet,Lingamguntla,Lingamguntla 2010Pz,16.231,80.0318,Bore Well,3.72
Andhra Pradesh,Guntur,Narsaraopet,Pamidimarru,Pamidimarru-DW14,16.1286,80.022,Dug Well,4.85
Andhra Pradesh,Guntur,Nizampatnam,Nijampatnam,Nijampatnam,15.9624,80.6638,Dug Well,1.21
Andhra Pradesh,Guntur,Nizampatnam,Pallapatla-Dw,Pallapatla-Dw,15.971906,80.614139,Dug Well,1.83
Andhra Pradesh,Guntur,Nuzendla,Inovolu,Inovolu,15.9932,79.6704,Dug Well,0.65
Andhra Pradesh,Guntur,Pedanandipadu,Varagami,Varagami,16.085077,80.328973,Dug Well,5.93
Andhra Pradesh,Guntur,Phirangipuram,Pirangipuram,Pirangipuram,16.288,80.2565,Dug Well,5.63
Andhra Pradesh,Guntur,Piduguralla,Brahmanapally-Dw,Brahmanapally-Dw,16.5174,79.8311,Dug Well,2.92
Andhra Pradesh,Guntur,Piduguralla,Brahmanpally,Brahmanpally 2012Pz 16.5183,,79.8279,Bore Well,1.2
Andhra Pradesh,Guntur,Piduguralla,Guttikonda,Guttikonda,16.4306,79.8322,Dug Well,3
Andhra Pradesh,Guntur,Piduguralla,Pillutla,Pillutla,16.5385,79.9057,Dug Well,2.18
Andhra Pradesh,Guntur,Piduguralla,Thummalacheruvu,Thummalacheruvu,16.5255,79.7987,Dug Well,3.64
Andhra Pradesh,Guntur,Pittalavanipalem,Mannevaripalem-Dw,Mannevaripalem-Dw,15.9667,80.65054,Dug Well,0.88
Andhra Pradesh,Guntur,Ponnuru,Kattempudi,Kattempudi-DW14,16.113528,80.455848,Dug Well,2.56
Andhra Pradesh,Guntur,Ponnuru,Ponnur(Old),Ponnur(old),16.064657,80.543006,Dug Well,3.3
Andhra Pradesh,Guntur,Prathipadu,Prattipadu,Prattipadu,16.1803,80.3318,Dug Well,1.19
Andhra Pradesh,Guntur,Rajupalem,Kondamodu,Kondamodu,16.4608,79.9206,Dug Well,2.75
,,NAME,,,,,,LEVEL
,,,,,,,,(mbgl)
Andhra Pradesh,Guntur,Rajupalem,Kondamodu,Kondamodu-DW13,16.4609,79.9204,Dug Well,7.2
Andhra Pradesh,Guntur,Rentachintala,Rentachintala,Rentachintala,16.5514,79.5477,Dug Well,1.12
Andhra Pradesh,Guntur,Rentachintala,Tummurukota,Tummurukota,16.5583,79.4611,Dug Well,1.6
Andhra Pradesh,Guntur,Repalle,Repalle,Repalle,16.0288,80.8397,Dug Well,1.52
Andhra Pradesh,Guntur,Repalle,Repalle,Repalle1-NQM,16.178917,80.750972,Bore Well,9.18
Andhra Pradesh,Guntur,Repalle,Repalle,Repalle-NQM,16.0327778,80.8186111,Bore Well,10.58
Andhra Pradesh,Guntur,Rompicherla,Rompicherla,Rompicherla,16.21,79.9133,Dug Well,2.12
Andhra Pradesh,Guntur,Rompicherla,Rompicherla,Rompicherla 2010Pz,16.2128,79.9049,Bore Well,0.01
Andhra Pradesh,Guntur,Rompicherla,Santhagudipadu,Santhagudipadu ,16.2534,79.9141,Dug Well,3.18
,,,,DW13,,,,
Andhra Pradesh,Guntur,Sattenapalle,Rentapalle,Rentapalle,16.4713,80.1364,Dug Well,3.65
Andhra Pradesh,Guntur,Sattenapalle,Sattenapalle,Sattenapalle-DW14,16.4063,80.1479,Dug Well,2.17
Andhra Pradesh,Guntur,Savalyapuram,Velpur(G.Palem),Velpur(g.palem),16.2955,79.8648,Dug Well,2.86
Andhra Pradesh,Guntur,Tadikonda,Mukkamala,Mukkamala-DW14,16.4519,80.375,Dug Well,5.5
Andhra Pradesh,Guntur,Tadikonda,Ponnekallu,Ponnekallu,16.4043,80.4021,Dug Well,3.35
Andhra Pradesh,Guntur,Tadikonda,Ravela,Ravela,16.418,80.3484,Dug Well,2.05
Andhra Pradesh,Guntur,Tadikonda,Tadikonda-Dw,Tadikonda-Dw,16.4184903,80.4422593,Dug Well,2.55
Andhra Pradesh,Guntur,Tenali,Sekuru,Sekuru,16.276545,80.476454,Dug Well,1.35
Andhra Pradesh,Guntur,Tenali,Tenali,Tenali1-NQM,16.24374,80.631956,Bore Well,4.01
Andhra Pradesh,Guntur,Tenali,Tenali,Tenali2-NQM,16.2411111,80.6316667,Bore Well,1.71
Andhra Pradesh,Guntur,Tenali,Tenali,Tenali3-NQM,16.5456111,81.036851,Bore Well,3.71
Andhra Pradesh,Guntur,Tenali,Tenali,Tenali-NQM,16.24374,80.631956,Bore Well,4.16
Andhra Pradesh,Guntur,Thulluru,Mandhadam,Mandhadam-DW14,16.5145,80.5316,Dug Well,2.89
Andhra Pradesh,Guntur,Thulluru,Pedda Parimi,Pedda Parimi,16.4599,80.4552,Dug Well,2.56
Andhra Pradesh,Guntur,Thulluru,Thulluru-Dw,Thulluru-Dw,16.5304,80.4704,Dug Well,2.61
Andhra Pradesh,Guntur,Thulluru,Vykuntapuram,Vykuntapuram,16.566,80.4127,Dug Well,1.78
Andhra Pradesh,Guntur,Veldurti,Mandadi,Mandadi,16.4084,79.4054,Dug Well,6.76
Andhra Pradesh,Guntur,Veldurti,Sirigiripadu,Sirigiripadu-alt,16.3043,79.3263,Dug Well,6.65
,,NAME,,,,,,LEVEL
,,,,,,,,(mbgl)
Andhra Pradesh,Guntur,Vemuru,Chavali-Dw,Chavali-Dw,16.1389,80.7274,Dug Well,3.7
Andhra Pradesh,Guntur,Vemuru,Vemuru,Vemuru-NQM,16.1788889,80.7508333,Bore Well,6.51
Andhra Pradesh,Guntur,Vinukonda,Chikatigalapalem,Chikatigalapalem ,16.0067,79.6903,Bore Well,2.54
,,,,2010Pz,,,,
Andhra Pradesh,Guntur,Vinukonda,Enugupalem,Enugupalem 2010Pz,16.0206,79.8268,Bore Well,2.67
Andhra Pradesh,Guntur,Vinukonda,Gonoguntlavaripalem,Gonoguntlavaripalem 16.0276,,79.7929,Dug Well,1.77
,,,,DW13,,,,
Andhra Pradesh,Guntur,Vinukonda,Vellatur,Vellatur,16.1193,79.6506,Dug Well,2.36
Andhra Pradesh,Guntur,Vinukonda,Vinukonda,Vinukonda,16.0519,79.7434,Dug Well,3.59
Andhra Pradesh,Krishna,A.Konduru,A Konduru-New,A Konduru-New,16.5632,80.648,Dug Well,5.62
Andhra Pradesh,Krishna,A.Konduru,Kakarla,Kakarla,17.0566,80.6352,Dug Well,4.2
Andhra Pradesh,Krishna,A.Konduru,Ramchandrapuram,Ramchandrapuram-,16.87266,80.63975,Dug Well,1.65
,,,,DW14,,,,
Andhra Pradesh,Krishna,Avanigadda,Avanigadda,Avanigadda-DW14,16.022832,80.914599,Dug Well,4.93
Andhra Pradesh,Krishna,Bantumilli,Bantumilli,Bantumilli1,16.3697,81.2721,Dug Well,1.58
Andhra Pradesh,Krishna,Bantumilli,Malleshwaram,Malleshwaram-,16.3552,81.2712,Dug Well,1.45
,,,,DW14,,,,
Andhra Pradesh,Krishna,Bapulapadu,Bapulapadu-3,Bapulapadu-PZ 3 16.6451 80.9675 Tube Well,,,,17.35
Andhra Pradesh,Krishna,Challapalli,Challapalli,Challapalli,16.1185,80.9393,Dug Well,0.89
Andhra Pradesh,Krishna,Challapalli,Lankapalli-Dw,Lankapalli-Dw,16.1347,80.9856,Dug Well,0.83
Andhra Pradesh,Krishna,Gampalagudem,Gampalagudem,Gampalagudem,16.9997,80.5242,Dug Well,2.28
Andhra Pradesh,Krishna,Gampalagudem,Garikapadu,Garikapadu,16.9486,80.0525,Dug Well,2.4
Andhra Pradesh,Krishna,Gampalagudem,Veenagadapa,Veenagadapa-DW14,16.972113,80.531169,Dug Well,2.53
Andhra Pradesh,Krishna,Gannavaram,B B Gudem,B B Gudem,16.5713,80.7515,Dug Well,3.27
Andhra Pradesh,Krishna,Gudivada,Angaluru New,Angaluru New,16.257904,80.830665,Dug Well,2.62
Andhra Pradesh,Krishna,Gudivada,Polukonda,Polukonda,16.521062,81.079137,Dug Well,0.01
Andhra Pradesh,Krishna,Gudivada,Ventrapragada,Ventrapragada,16.442,80.91,Dug Well,2.6
Andhra Pradesh,Krishna,Gudlavalleru,Gudlavalleru-New,Gudlavalleru-New,16.3436,81.0547,Dug Well,4.75
Andhra Pradesh,Krishna,Gudlavalleru,Kautaram,Kautaram-DW14 16.3354 81.0779 Dug Well,,,,2.12
Andhra Pradesh,Krishna,Guduru,Guduru,Guduru-DW14,16.2202,81.0842,Dug Well,1.1
,,NAME,,,,,,LEVEL
,,,,,,,,(mbgl)
Andhra Pradesh,Krishna,Ibrahimpatnam,Ibrahimpatnam,Ibrahimpatnam,16.59016,80.52075,Dug Well,1
Andhra Pradesh,Krishna,Jaggayyapeta,Muktyala,Muktyala-PZ 2,16.8273,80.076,Bore Well,21.4
Andhra Pradesh,Krishna,Kaikaluru,Pallewada,Pallewada DW13,16.5794,81.28671,Dug Well,0.45
Andhra Pradesh,Krishna,Kalidindi,Kalidindi,Kalidindi-DW14,16.505313,81.29022,Dug Well,2.5
Andhra Pradesh,Krishna,Kanchikacherla,Kanchikacherla,Kanchikacherla ,16.6811,80.395,Bore Well,3.25
,,,,2010Pz,,,,
Andhra Pradesh,Krishna,Koduru,Koduru,Koduru-DW14,16.0073,81.0276,Dug Well,2
Andhra Pradesh,Krishna,Koduru,Mandapakala,Mandapakala-DW14,15.9761,80.9981,Dug Well,2.4
Andhra Pradesh,Krishna,Machilipatnam,Nimmakuru-Ntr,Nimmakuru-Ntr,16.2747,81.0051,Dug Well,3.84
Andhra Pradesh,Krishna,Machilipatnam,Sultan Nagar,Sultan nagar,16.2001,81.1136,Dug Well,2.82
Andhra Pradesh,Krishna,Mandavalli,Kaikaluru,Kaikaluru1,16.544557,81.199477,Dug Well,1.81
Andhra Pradesh,Krishna,Mandavalli,Konakallu-Dw,Konakallu-Dw,16.46083,81.13434,Dug Well,1.53
Andhra Pradesh,Krishna,Mandavalli,Mandavalli-Dw,Mandavalli-Dw,16.517757,81.16381,Dug Well,1.13
Andhra Pradesh,Krishna,Movva,Ayyanki,Ayyanki,16.2657,80.9437,Dug Well,8.61
Andhra Pradesh,Krishna,Mudinepalle,Bomminampadu,Bomminampadu-,16.4735,81.217,Dug Well,1.5
,,,,DW14,,,,
Andhra Pradesh,Krishna,Mudinepalle,Kopparagudem,Upparigudem,16.40835,81.17411,Dug Well,1.6
Andhra Pradesh,Krishna,Mudinepalle,Mallapparajgudem,Mallapparajgudem-,16.4091,81.2081,Dug Well,1.1
,,,,DW14,,,,
Andhra Pradesh,Krishna,Mudinepalle,Singarayapalem,Singarayapalem-,16.410564,81.156416,Dug Well,1.6
,,,,DW14,,,,
Andhra Pradesh,Krishna,Musunuru,Musunuru,Musunuru-DW15,16.82833,80.93496,Dug Well,10.5
Andhra Pradesh,Krishna,Mylavaram,Chandragudem,Chandragudem,16.807878,80.630106,Dug Well,5.87
Andhra Pradesh,Krishna,Mylavaram,Mailavaram,Mailavaram,16.75266,80.63925,Dug Well,1.73
Andhra Pradesh,Krishna,Nagayalanka,Nagayalanka,Maripalem ,15.949,80.922,Dug Well,3.07
,,,,(Nagayalanka),,,,
Andhra Pradesh,Krishna,Nandigama,Anasagaram,Anasagaram,16.789,80.2734,Dug Well,9.86
Andhra Pradesh,Krishna,Nandigama,Itavaram-Dw,Itavaram-Dw,16.735018,80.3043,Dug Well,3.45
Andhra Pradesh,Krishna,Nuzividu,Nuzivedu,Nuzivedu,16.786811,80.855,Dug Well,0.7
Andhra Pradesh,Krishna,Nuzividu,Vadlamanu,Vadlamanu,16.72076,80.809203,Dug Well,1.32
Andhra Pradesh,Krishna,Pamarru,Kurumaddali,Kurumaddali,16.331,80.926,Dug Well,1.86
,,NAME,,,,,,LEVEL
,,,,,,,,(mbgl)
Andhra Pradesh,Krishna,Pamidimukkala,Movva,Movva,16.2269,80.9129,Dug Well,1.01
Andhra Pradesh,Krishna,Pedana,Balliparru,Balliparru,16.277,81.1872,Dug Well,1.1
Andhra Pradesh,Krishna,Pedana,Munjuluru,Munjuluru,16.3092,81.212,Dug Well,2.3
Andhra Pradesh,Krishna,Pedana,Nadupur,Nadupur-DW14,16.283,81.1293,Dug Well,2.55
Andhra Pradesh,Krishna,Pedana,Pedana New,Pedana New,16.2584,81.1455,Dug Well,1.88
Andhra Pradesh,Krishna,Penuganchiprolu,Penuganchiprolu,Penuganchiprolu-,16.90187,80.2471,Dug Well,2.45
,,,,DW14,,,,
Andhra Pradesh,Krishna,Reddigudem,Kottareddigudem,Kottareddigudem-,16.876774,80.741375,Dug Well,4.48
,,,,DW14,,,,
Andhra Pradesh,Krishna,Tiruvuru,Chintalapadu-Dw,Chintalapadu-Dw,17.03118,80.555616,Dug Well,0.4
Andhra Pradesh,Krishna,Tiruvuru,Tiruvur,Tiruvur,17.114346,80.6142,Dug Well,3.85
Andhra Pradesh,Krishna,Vatsavai,Makkapeta,Makkapeta-DW14,16.92517,80.191503,Dug Well,3.5
Andhra Pradesh,Krishna,Veerulapadu,Jagannadhapuram,Jagannadhapuram,16.7295,80.4099,Dug Well,10.15
,,,,DW13,,,,
Andhra Pradesh,Krishna,Vissannapeta,Vissannapet New,Vissannapet New,16.942,80.783546,Dug Well,2.82
Andhra Pradesh,Krishna,Vuyyuru,Akunuru,Akunuru,16.392,80.1888,Dug Well,2.17
Andhra Pradesh,Krishna,Vuyyuru,Kadavakollu,Kadavakollu,16.3966,80.8523,Dug Well,3.11
Andhra Pradesh,Krishna,Vuyyuru,Tadanki,Tadanki,16.356,80.879685,Dug Well,3.03
Andhra Pradesh,Kurnool,Adoni,Adoni Kota,Adoni Kota,15.6667,77.2875,Dug Well,4.1
,,,"Veerabhadraswamigud
i","Veerabhadraswamig
udi-DW14",,,,
Andhra Pradesh,Kurnool,Adoni,Bapuram,Bapuram,15.7882,77.08347,Bore Well,3.17
Andhra Pradesh,Kurnool,Adoni,Boddanakere,Doddanakere-DW14,15.69934,77.2849,Dug Well,6.69
Andhra Pradesh,Kurnool,Adoni,Gulyam,Gulyam-DW13,15.3593027,77.0633251,Dug Well,6.16
Andhra Pradesh,Kurnool,Adoni,Naganathanapali,Naganathanahalli,15.5607,77.22214,Dug Well,3.34
Andhra Pradesh,Kurnool,Allagadda,Ahobilam,Ahobilam,15.13398,78.67252,Dug Well,8.53
Andhra Pradesh,Kurnool,Alur,Aluru,Aluru1,15.39912,77.2235,Bore Well,4
Andhra Pradesh,Kurnool,Atmakur,Atmakur (Alt),Atmakur (alt),15.87427,78.57705,Dug Well,1.46
Andhra Pradesh,Kurnool,Atmakur,Venkatapuram,Venkatapuram2,15.88315,78.6544,Dug Well,2.53
Andhra Pradesh,Kurnool,Banaganapalle,Banaganapalli,Banaganapalli-DW14,15.31297,78.22714,Dug Well,4.5
,,NAME,,,,,,LEVEL
,,,,,,,,(mbgl)
Andhra Pradesh,Kurnool,Dadivemula,Gadivemula,Gadivemula-DW13,15.66742,78.44095,Dug Well,1.76
Andhra Pradesh,Kurnool,Dadivemula,Santajutur,Santajutur,15.62604,78.534363,Dug Well,0.49
Andhra Pradesh,Kurnool,Devanakonda,Karivemula,Karivemula,15.5942,77.5967,Dug Well,0.37
Andhra Pradesh,Kurnool,Emmiganur,Bapuram,Bapuram1,15.3323,77.1262,Bore Well,2.03
Andhra Pradesh,Kurnool,Emmiganur,Yemignur[R],Yemmiganur-DW14,15.7568,77.4583,Dug Well,2.07
Andhra Pradesh,Kurnool,Gonegandla,Gonegandla,Gonegandla,15.7079,77.6142,Bore Well,1.64
Andhra Pradesh,Kurnool,Gonegandla,Gonegondla,Gonegondla,15.7117,77.5963,Dug Well,1.25
Andhra Pradesh,Kurnool,Gudur,Gudur,Gudur-PZ -WT,15.7726,77.8074,Bore Well,6.18
Andhra Pradesh,Kurnool,Halaharvi,Haradgiri-Pn-3,Haradgiri-pn-3,15.3012,77.18819,Bore Well,5.82
Andhra Pradesh,Kurnool,Holagonda,Holagondi,Holagondi,15.4833333,77.05,Dug Well,2.05
Andhra Pradesh,Kurnool,Holagonda,Sulavai,Sulavai-DW13,15.4321,77.1222,Dug Well,4.22
Andhra Pradesh,Kurnool,Jupadubunglow,Nandikotkur,Nandikotkur,15.85667,78.264113,Dug Well,2.23
Andhra Pradesh,Kurnool,Kautalam,Podalakunta,Podalakunta-DW14,15.8432,77.1147,Dug Well,2.57
Andhra Pradesh,Kurnool,Kodumur,Kodumuru,Kodumuru 2013DW,15.6857,77.7736,Dug Well,3.17
Andhra Pradesh,Kurnool,Kodumur,Pyalakurthi,Pylakurthi,15.7151,77.8131,Bore Well,2.42
Andhra Pradesh,Kurnool,Kolimigundla,Kolimigundla,Kolimigundla-DW14,15.07472,78.107801,Dug Well,5.85
Andhra Pradesh,Kurnool,Kurnool,Kurnool,Kurnool-DW14,15.8385,78.0494,Dug Well,4.61
Andhra Pradesh,Kurnool,Kurnool,Kurnool,Kurnool-IMD-PZ,15.8055,78.0399,Bore Well,3.88
Andhra Pradesh,Kurnool,Mahanandi,Mahanandi,Mahanandi-DW13,15.46921,78.619993,Dug Well,4.16
Andhra Pradesh,Kurnool,Mantralayam,Madhavaram,Madhavaram,15.9354,77.3561,Dug Well,1.29
Andhra Pradesh,Kurnool,Mantralayam,Tungabhadra,Tungabhadra ,15.9478,77.3014,Dug Well,3.08
,,,,2013DW,,,,
Andhra Pradesh,Kurnool,Nandavaram,Yemignur,Yemignur,15.7556,77.4582,Bore Well,2.8
Andhra Pradesh,Kurnool,Nandyala,Nandyal,Nandyal-DW13,15.48917,78.49468,Dug Well,0.05
Andhra Pradesh,Kurnool,Orvakal,Orvakallu,Orvakallu,15.6858,78.1758,Dug Well,2.55
Andhra Pradesh,Kurnool,Pagidyala,Moravakonda,Moravakonda,15.95924,78.287632,Dug Well,1.71
Andhra Pradesh,Kurnool,Pamulapadu,Rudravaram,Rudravaram-DW13,15.85028,78.47074,Dug Well,0.99
Andhra Pradesh,Kurnool,Panyam,Alamuru,Alamuru-DW13,15.45821,78.3248,Dug Well,3.02
,,NAME,,,,,,LEVEL
,,,,,,,,(mbgl)
Andhra Pradesh,Kurnool,Pattikonda,Rajala Mandagiri,"Rajala Mandagiri-
DW14",15.4359,77.4735,Dug Well,0.38
Andhra Pradesh,Kurnool,Peapalle,Burugula,Burugula EW AQ-II,15.14486,77.94124,Bore Well,25.76
Andhra Pradesh,Kurnool,Peapalle,Yenugumarri,Yenugumarri,15.2972222,77.7916667,Dug Well,2.95
Andhra Pradesh,Kurnool,Rudravaram,Battulur,Battulur,15.2452,78.505777,Dug Well,3.68
Andhra Pradesh,Kurnool,Srisailam,Srisailam,Srisailam-DW14,16.07588,78.8671,Dug Well,1.05
Andhra Pradesh,Kurnool,Uyyalawada,Nossam,Nossam,14.98822,78.39186,Dug Well,2.95
Andhra Pradesh,Kurnool,Veldurthi,Veldurti,Veldurti,15.5531,77.9269,Dug Well,2.12
Andhra Pradesh,Kurnool,Velugodu,G Ragadi Gudur,"G Ragadi Gudur-
dw14",15.71271,78.478413,Dug Well,1.08
Andhra Pradesh,Nellore,Allur,Allur,Allur-DW13,14.6783333,80.0519444,Dug Well,0.23
Andhra Pradesh,Nellore,Allur,Allur,Allur-NQM,14.680481,80.050014,Bore Well,1.53
Andhra Pradesh,Nellore,Allur,S Sakapalli,Isakapalli-DW14,14.733379,80.096812,Dug Well,1.34
Andhra Pradesh,Nellore,Allur,Sunnapubatti,Sunnapubatti,14.681736,79.973768,Dug Well,1.94
Andhra Pradesh,Nellore,Atmakur,Atmakur,Atmakur,14.646369,79.613616,Dug Well,2.59
Andhra Pradesh,Nellore,Atmakur,Kastam Pahad,Kastam Pahad-DW14,14.679528,79.538524,Dug Well,1.43
Andhra Pradesh,Nellore,Atmakur,Venkatraopalli,Wasile-DW14,14.61695,79.672681,Dug Well,1.49
Andhra Pradesh,Nellore,Balayapalli,Melchuru,Melchuru,13.908006,79.731489,Dug Well,0.19
Andhra Pradesh,Nellore,Bogole,Bitragunta,Bitragunta-DW14,14.766012,80.003114,Dug Well,1.33
Andhra Pradesh,Nellore,Bogole,Kadanothala,Kadanothala,14.790967,79.999678,Dug Well,0.21
Andhra Pradesh,Nellore,Chejerla,Aduripalle-Dw,Aduripalle 2013Dw,14.442635,79.60458,Dug Well,5.32
Andhra Pradesh,Nellore,Chejerla,Bodipadu,Bodipadu-DW13,14.516424,79.57495,Dug Well,5.13
Andhra Pradesh,Nellore,Chejerla,Nagulavellaturu,Nagulavellaturu-,14.494247,79.519515,Dug Well,1.57
,,,,DW13,,,,
Andhra Pradesh,Nellore,Chillakur,Budamam,Budam-1,14.072159,79.890995,Dug Well,3.47
Andhra Pradesh,Nellore,Chillakur,Ramareddypalem,Ramareddypalem-,14.140425,80.006599,Dug Well,1.35
,,,,DW14,,,,
Andhra Pradesh,Nellore,Chittamur,Aravapalem,Aravapalem,13.930517,80.038439,Dug Well,0.82
Andhra Pradesh,Nellore,Doravarisatram,Krishnapuram,Krishnapuram,13.800026,79.952811,Dug Well,3.33
,,NAME,,,,,,LEVEL
,,,,,,,,(mbgl)
Andhra Pradesh,Nellore,Duttalur,Bramheshpuram-Dw,"Bramheshpuram
2012Dw",14.8545,79.459237,Dug Well,4.03
Andhra Pradesh,Nellore,Duttalur,Nandipadu-Dw,Nandipadu 2013Dw,14.805896,79.344572,Dug Well,3.53
Andhra Pradesh,Nellore,Duttalur,Udayagiri,Udayagiri,14.876139,79.311011,Dug Well,6
Andhra Pradesh,Nellore,Gudur,Gollapalli,Gollapalli,14.110181,79.727021,Dug Well,4.1
Andhra Pradesh,Nellore,Jaladandi,Tommidimile-Dw,Tommidimile ,14.864245,79.884613,Dug Well,0.27
,,,,2013Dw,,,,
Andhra Pradesh,Nellore,Kaligiri,Chennaannaluru-Dw,Chennaannaluru ,14.910302,79.684154,Dug Well,2.61
,,,,2013Dw,,,,
Andhra Pradesh,Nellore,Kaligiri,Kaligiri-Dw,Kaligiri 2013Dw,14.828717,79.69651,Dug Well,0.54
Andhra Pradesh,Nellore,Kavali,Kavali,Kavali,14.908659,79.993861,Dug Well,0.8
Andhra Pradesh,Nellore,Koluvoya,Kaluvaya,Kaluvaya,14.511303,79.412783,Dug Well,3.02
Andhra Pradesh,Nellore,Kondapuram,Kondapuram,Kondapuram,14.992313,79.682117,Dug Well,3.36
Andhra Pradesh,Nellore,Kondapuram,Tadaparthi-Alt,Tadaparthi-alt,14.517938,79.766096,Dug Well,0.52
Andhra Pradesh,Nellore,Kondavalur,North Rajupalem,North rajupalem,14.557086,79.989582,Dug Well,1.33
Andhra Pradesh,Nellore,Kota,Chittedu,Chittedu-dw14,14.054294,79.980287,Dug Well,1.36
Andhra Pradesh,Nellore,Kota,Kesavaram,Kesavaram DW13,14.062342,79.960858,Dug Well,1.88
Andhra Pradesh,Nellore,Kota,Vidyanagar-Alt,Vidyanagar-alt,14.030565,80.03122,Dug Well,1.36
Andhra Pradesh,Nellore,Kovvur,Chouttucherla,Chouttucherla-DW14,14.6136,80.0472,Dug Well,0.26
Andhra Pradesh,Nellore,Kovvur,Kovvuru,Kovvuru,14.502731,79.985252,Dug Well,0.01
Andhra Pradesh,Nellore,Manubolu,Manubolu,Manubolu-DW14,14.191909,79.871827,Dug Well,1.7
Andhra Pradesh,Nellore,Manubolu,Vadlapudi,Vadlapudi-dw14,14.303067,79.779209,Dug Well,1.91
Andhra Pradesh,Nellore,Marripadu,Bata,Bata,14.718627,79.22008,Dug Well,3.39
Andhra Pradesh,Nellore,Muthukur,Brahmadevam,Brahmadevam-DW13 14.349035,,80.064271,Dug Well,1.18
Andhra Pradesh,Nellore,Muthukur,Muthukur,Mahalakshmipurm,14.2747222,80.1,Dug Well,0.01
Andhra Pradesh,Nellore,Muthukur,Muthukur,Muthukur-NQM,14.295717,80.090029,Bore Well,15.63
Andhra Pradesh,Nellore,Muthukur,Muthukuru,Muthukuru1,14.290059,80.094724,Dug Well,2.44
Andhra Pradesh,Nellore,Naidupeta,Brahmanapuduru ,Brahmanapuduru ,13.899047,79.926764,Dug Well,1.3
,,,Agraharam,Agraharam DW13,,,,
,,NAME,,,,,,LEVEL
,,,,,,,,(mbgl)
Andhra Pradesh,Nellore,Nellore,Nellore-Dw,Nellore 2013Dw,14.436602,79.964175,Dug Well,3.53
Andhra Pradesh,Nellore,Nellore,Tikkavaram,Tikkavaram,14.121136,79.958471,Dug Well,2.66
Andhra Pradesh,Nellore,Podalakur,Podalakur,Podalakur,14.380954,79.730994,Dug Well,1.08
Andhra Pradesh,Nellore,Podalakur,Shanti Nagar,Shanti Nagar-DW14,14.429917,79.761562,Dug Well,0.33
Andhra Pradesh,Nellore,Rapur,Penubarti,Penubarti,14.342833,79.471696,Dug Well,3.23
Andhra Pradesh,Nellore,Rapur,Rapur,Rapur2,14.201462,79.535131,Dug Well,3.36
Andhra Pradesh,Nellore,Sangam,Sangam,Sangam,14.587511,79.743197,Dug Well,1.28
Andhra Pradesh,Nellore,Sullurpeta,Atkanitipa,Atkanitipa-DW14,13.72248,80.124058,Dug Well,0.13
Andhra Pradesh,Nellore,Vakadu,Durgarajapatnam,Durgarajapatnam,13.978613,80.156435,Dug Well,0.22
Andhra Pradesh,Nellore,Venkatachalam,Kanupur,Kanupur-dw14,14.328859,79.902709,Dug Well,1.38
Andhra Pradesh,Nellore,Venkatachalam,Sarvepalli,Sarvepalli-DW14,14.291162,79.965629,Dug Well,3.45
Andhra Pradesh,Nellore,Venkatachalam,Venkatachalam-R,Venkatachalam-r,14.328886,79.927483,Dug Well,1.21
Andhra Pradesh,Nellore,Venkatagiri,Gopalpuram,Gopalpuram-DW13,14.021567,79.626052,Dug Well,1.25
Andhra Pradesh,Nellore,Venkatagiri,Venkatagiri,Venkatagiri,13.949886,79.586212,Dug Well,5.28
Andhra Pradesh,Nellore,Vidavalur,Ramathirdam,Ramathirdam,14.63985,80.142942,Dug Well,1.44
Andhra Pradesh,Prakasam,Addanki,Addanki,Addanki 2011pz,15.827163,79.972166,Bore Well,0.82
Andhra Pradesh,Prakasam,Ardhaveedu,Maguturu,Maguturu-NQM,15.6913,79.0833,Bore Well,9.08
Andhra Pradesh,Prakasam,Ballikurava,Vaidana Kapparapadu-,Vaidana,15.960498,79.962543,Dug Well,2.19
,,,Dw,Kapparapadu ,,,,
,,,,2013Dw,,,,
Andhra Pradesh,Prakasam,Bestavaripeta,Bestavaripeta,Bestavaripeta1,15.5537,79.1088,Bore Well,5.23
Andhra Pradesh,Prakasam,Bestavaripeta,Pachala Venkatapuram,Pachala ,15.3997,79.1276,Bore Well,7.06
,,,,Venkatapuram-NQM,,,,
Andhra Pradesh,Prakasam,Bestavaripeta,Singarapalle,Singarapalle,15.3553,79.1258,Bore Well,1
Andhra Pradesh,Prakasam,Bestavaripeta,Somavaripeta,Somavaripeta-DW13,15.5579,79.107,Dug Well,4.6
Andhra Pradesh,Prakasam,"Chandrasekharapura
m","Chandrashekharapura
m-Dw","Chandrashekharapur
am-Dw",15.1831,79.2747,Dug Well,0.43
,,NAME,,,,,,LEVEL
,,,,,,,,(mbgl)
Andhra Pradesh,Prakasam,"Chandrasekharapura
m",P Gogulapalle,P Gogulapalle,15.26,79.3247,Bore Well,3.47
Andhra Pradesh,Prakasam,Chimakurti,Cheemakurthi,Cheemakurthi1,15.5778,79.8706,Bore Well,3.1
Andhra Pradesh,Prakasam,Chimakurti,Chimakurti,Chimakurti,15.5885,79.8422,Dug Well,2.85
Andhra Pradesh,Prakasam,Chinna Ganjam,Kadavakuduru,Kadavakuduru,15.726407,80.254279,Dug Well,3.67
Andhra Pradesh,Prakasam,Chirala,Chirala,Chirala,15.829825,80.35458,Dug Well,3.25
Andhra Pradesh,Prakasam,Chirala,Vadarevu,Vadarevu-DW14,15.797459,80.411024,Dug Well,2.25
Andhra Pradesh,Prakasam,Darsi,Darsi,Darsi 2011pz,15.7625,79.6767,Bore Well,2.5
Andhra Pradesh,Prakasam,Darsi,Darsi-New,Darsi-new,15.7714,79.6817,Dug Well,3.2
Andhra Pradesh,Prakasam,Darsi,Voolagallu,Voolagallu,15.8053,79.7664,Dug Well,1.1
Andhra Pradesh,Prakasam,Donakonda,Donakonda,Donakonda,15.831,79.4872,Dug Well,2.3
Andhra Pradesh,Prakasam,Donakonda,P Venkatapuram,P Venkatapuram 15.7625 79.4762 Bore Well,,,,23.8
Andhra Pradesh,Prakasam,Donakonda,Rudra Samudram,Rudra Samudram,15.8375,79.3969,Bore Well,15.2
Andhra Pradesh,Prakasam,Dornala,Hasnabad Dornala,Hasnabad Dornala-,15.8934,79.1243,Bore Well,16.06
,,,,NQM,,,,
Andhra Pradesh,Prakasam,Dornala,Y.Cherlopalle,Y.Cherlopalle,15.9142,78.9755,Bore Well,18.31
Andhra Pradesh,Prakasam,Giddalur,Mundlapadu,Mundlapadu,15.3422,78.9035,Bore Well,14.8
Andhra Pradesh,Prakasam,Giddalur,Porumamilapalli,Porumamilapalli,15.5622,79.0881,Dug Well,1.45
,,,,DW13,,,,
Andhra Pradesh,Prakasam,Hanumanthunipadu,Nandanavanam,Nandanavanam,15.4669,79.2733,Bore Well,1.47
Andhra Pradesh,Prakasam,Hanumanthunipadu,Thimmaredipalli,Thimmaredipalli,15.4839,79.3696,Bore Well,6.9
Andhra Pradesh,Prakasam,Inkollu,Duddukuru,Duddukuru-DW13,15.742531,80.173032,Dug Well,2.81
Andhra Pradesh,Prakasam,Inkollu,Inkollu,Inkollu-DW13,15.82632,80.191064,Dug Well,1.73
Andhra Pradesh,Prakasam,Janakavaram-,Muppavaram,Muppavaram,15.843068,80.051768,Dug Well,0.01
,,Pangullu,,,,,,
Andhra Pradesh,Prakasam,Janakavaram-,Muppavaram,Muppavaram1,15.8338,80.0463,Bore Well,4.38
,,Pangullu,,,,,,
Andhra Pradesh,Prakasam,Kandukur,Kandukur,Kandukur,15.218531,79.911496,Dug Well,1.09
Andhra Pradesh,Prakasam,Kanigiri,Alavalapadu,Alavalapadu 2012Pz,15.3314,79.6237,Bore Well,1.35
,,NAME,,,,,,LEVEL
,,,,,,,,(mbgl)
Andhra Pradesh,Prakasam,Kanigiri,Alavalapadu,"Pedda Alavalapadu-
DW14",15.3272,79.6267,Dug Well,4.4
Andhra Pradesh,Prakasam,Kanigiri,Kanigiri,Kanigiri 2011pz,15.402966,78.57145,Bore Well,10.3
Andhra Pradesh,Prakasam,Kanigiri,Nandana Marella,Nandana Marella,15.4833,79.5175,Bore Well,7.72
Andhra Pradesh,Prakasam,Karamchedu,Duddapadu,Duddapadu-DW14,15.871731,80.3333,Dug Well,0.95
Andhra Pradesh,Prakasam,Karamchedu,Karamchedu,Karamchedu,15.878197,80.209899,Dug Well,1.5
Andhra Pradesh,Prakasam,Komarole,Rajupalem,Rajupalem,15.3302778,78.975,Bore Well,2.14
Andhra Pradesh,Prakasam,Kondepi,Kondepi,Kondepi1,15.4133,79.8681,Bore Well,9.1
Andhra Pradesh,Prakasam,Korisapadu,Medarametla,Medarametla-DW13,15.7280592,80.0175463,Dug Well,5
Andhra Pradesh,Prakasam,Kurichedu,Gollapalli,Gollapalli,15.9267,79.3964,Dug Well,1.2
Andhra Pradesh,Prakasam,Kurichedu,Kurichedu,Kurichedu1,15.8975,79.58,Bore Well,1.6
Andhra Pradesh,Prakasam,Kurichedu,Vengaiahpalem,Vengaiahpalem,15.9236,79.5942,Dug Well,1.8
Andhra Pradesh,Prakasam,Lingasamudram,Pentrala,Pentrala,15.0722,79.7147,Bore Well,5.53
Andhra Pradesh,Prakasam,Maddipadu,Maddipadu,Maddipadu DW13,15.6121,80.0259,Dug Well,3.4
Andhra Pradesh,Prakasam,Markapur,Gajjalakonda,Gajjalakonda,15.753057,79.38529,Bore Well,20.85
Andhra Pradesh,Prakasam,Markapur,Idupur,Idupur-NQM,15.7698,79.2849,Bore Well,9.38
Andhra Pradesh,Prakasam,Markapur,Komatikunta,Komatikunta,15.7525,79.2285,Bore Well,35.15
Andhra Pradesh,Prakasam,Marripudi,Agraharam,Agraharam-DW14,15.5933,79.7267,Dug Well,6.52
Andhra Pradesh,Prakasam,Marripudi,Juvvigunta,Juvvigunta,15.4339,79.7289,Bore Well,4.37
Andhra Pradesh,Prakasam,Mundalamur,Marella,Marella,15.8713,79.9039,Bore Well,0.9
Andhra Pradesh,Prakasam,Mundalamur,Uma,Uma,15.8385,79.8265,Bore Well,2.18
,,,Maheswarapuram,Maheswarapuram,,,,
Andhra Pradesh,Prakasam,Naguluppalapadu,Chedalavada,Chedalavada-DW13,15.61,80.0931,Dug Well,1
Andhra Pradesh,Prakasam,Naguluppalapadu,Uppugundur,Uppugundur,15.6753,80.1639,Dug Well,1.2
Andhra Pradesh,Prakasam,Ongole,Ongole-New,Ongole-new,15.5065,80.0583,Dug Well,1.1
Andhra Pradesh,Prakasam,Ongole,Santanutalapadu,Santanutalapadu 15.5461 79.9394 Dug Well,,,,2.41
Andhra Pradesh,Prakasam,Pamuru,Ayyavarepalli,Ayyavarepalli-DW14,15.1126,79.5663,Dug Well,7.1
Andhra Pradesh,Prakasam,Pamuru,Dubagunta,Dubagunta-DW14,14.915995,79.724755,Dug Well,1.45
,,NAME,,,,,,LEVEL
,,,,,,,,(mbgl)
Andhra Pradesh,Prakasam,Pamuru,Malakonda,Malakonda,15.117493,79.640355,Dug Well,0.37
Andhra Pradesh,Prakasam,Pamuru,Veggampalli,Veggampalli 2011pz,15.1739,79.4433,Bore Well,1.4
Andhra Pradesh,Prakasam,Paruchur,Neethalapadu,Neethalapadu-DW14,15.934904,80.2339,Dug Well,1.2
Andhra Pradesh,Prakasam,Peda Araveedu,Sanikavaram,Sanikavaram,15.9014,79.1715,Bore Well,18.82
Andhra Pradesh,Prakasam,Peda Araveedu,Thokapalle,Thokapalle,15.8807,79.2951,Bore Well,37.3
Andhra Pradesh,Prakasam,Peddacherlopalli,Peddacherlopalli,Peddacherlopalli 15.2703 79.5744 Bore Well,,,,2.84
Andhra Pradesh,Prakasam,Podili,Katurivaripalem,Katurivaripalem,15.598,79.6398,Bore Well,9.22
Andhra Pradesh,Prakasam,Podili,Oneguruvaripalem-Dw,Oneguruvaripalem ,15.6825,79.6461,Dug Well,7.93
,,,,2013Dw,,,,
Andhra Pradesh,Prakasam,Podili,Tallamalla,Tallamalla,15.593379,79.722963,Dug Well,4.55
Andhra Pradesh,Prakasam,Ponnaluru,Malepadu,Malepadu,15.2397,79.7106,Bore Well,0.8
Andhra Pradesh,Prakasam,Ponnaluru,Muttarasupalem,Muttarasupalem ,15.2486,79.8408,Dug Well,2.37
,,,,DW13,,,,
Andhra Pradesh,Prakasam,Ponnaluru,Venkupalem,Venkupalem 2011pz,15.3022,79.7469,Bore Well,5.08
Andhra Pradesh,Prakasam,Ponnaluru,Venkupalem-Dw,Venkupalem 2013Dw,15.3022,79.7469,Dug Well,5.73
Andhra Pradesh,Prakasam,Racherla,Turumella,Turumella,15.5228,78.9861,Dug Well,2.02
Andhra Pradesh,Prakasam,Santamaguluru,Santamaguluru,Santamaguluru ,16.11891,79.9584,Bore Well,0.38
,,,,2011pz,,,,
Andhra Pradesh,Prakasam,Santhanuthalapadu,Chilikapadu,Chilikapadu1,15.4783,79.9067,Bore Well,1.53
Andhra Pradesh,Prakasam,Tarlupadu,Thummalacheruvu,Thummalacheruvu,15.6589,79.2919,Bore Well,10.18
Andhra Pradesh,Prakasam,Tripurantakam,Dhupadu,Dhupadu,15.9164,79.3669,Bore Well,5.14
Andhra Pradesh,Prakasam,Tripurantakam,Guttalaumadivrm,Guttalaumadivrm,16.0164,79.5581,Dug Well,2.35
Andhra Pradesh,Prakasam,Tripurantakam,Rajupalem,Rajupalem,15.3303,78.975,Dug Well,4.16
Andhra Pradesh,Prakasam,Ulavapadu,Chagallu,Chagallu-DW14,15.116909,80.006468,Dug Well,1.13
Andhra Pradesh,Prakasam,Ulavapadu,Ulavapadu,Ulavapadu-DW14,15.1631,80.0091,Dug Well,1.08
Andhra Pradesh,Prakasam,Veligandla,Kattakindalapalli,Kattakindalapalli,15.4186,79.2478,Bore Well,8.68
,,,,2011pz,,,,
,,NAME,,,,,,LEVEL
,,,,,,,,(mbgl)
Andhra Pradesh,Prakasam,Veligandla,P Rallapalle,P Rallapalle,15.3447,79.2447,Bore Well,3.6
Andhra Pradesh,Prakasam,Vetapalem,Pulleripalem,Pulleripalem-NQM,15.7400193,80.3246134,Bore Well,8.7
Andhra Pradesh,Prakasam,Vetapalem,Vetapalem,Vetapalem-DW14,15.774246,80.304747,Dug Well,4.42
Andhra Pradesh,Prakasam,Voletivaripalem,Malakonda,Malakonda,15.1152,79.6387,Bore Well,4.69
Andhra Pradesh,Prakasam,Voletivaripalem,Pokur-Dw,Pokuru 2013Dw,15.178407,79.817903,Dug Well,0.25
Andhra Pradesh,Prakasam,Voletivaripalem,Voletivaripalem,Voletivaripalem II,15.164894,79.72361,Bore Well,6.48
Andhra Pradesh,Prakasam,Yerragondapalem,Boyalapalle,Boyalapalle,15.9667,79.3214,Bore Well,69.82
Andhra Pradesh,Prakasam,Yerragondapalem,Veerbhadrapuram,Veerbhadrapuram,16.0575,79.2506,Bore Well,33.25
Andhra Pradesh,Srikakulam,Amudalavalasa,Amudalavalasa,Amudalavalasa1,18.416645,83.904074,Dug Well,3.55
Andhra Pradesh,Srikakulam,Gara,Chalavaripeta,Chalavaripeta DW13,18.509318,84.063205,Dug Well,2.8
Andhra Pradesh,Srikakulam,Gara,Gara,Gara 2013DW,18.329796,84.051935,Dug Well,5.2
Andhra Pradesh,Srikakulam,Gara,Kalingapatnam,Kalingapatnam,18.3428,84.1225,Dug Well,2.2
Andhra Pradesh,Srikakulam,Gara,Pydi Bhimavaram,Pydi Bhimavaram,18.1485,83.6262,Dug Well,1.45
,,,,DW13,,,,
Andhra Pradesh,Srikakulam,Gara,Sallapeta,Sallapeta-DW13,18.295742,83.977417,Dug Well,2.63
Andhra Pradesh,Srikakulam,Gara,Srikurmam,Srikurmam-DW13,18.272399,84.002811,Dug Well,2.72
Andhra Pradesh,Srikakulam,Heeramandalam,Gotta,Gotta-DW13,18.693707,83.970653,Dug Well,1.5
Andhra Pradesh,Srikakulam,Heeramandalam,Heeramandalam,Heeramandalam,18.675209,83.94893,Dug Well,2.4
Andhra Pradesh,Srikakulam,Heeramandalam,Kollata,Kollata 2013DW,18.710251,84.004523,Dug Well,7.35
Andhra Pradesh,Srikakulam,Heeramandalam,Pedda Sankhili,Pedda SankhiliDW16,18.7042,83.9278,Dug Well,4.1
Andhra Pradesh,Srikakulam,Ichapuram,Ichapuram,Ichapuram,19.118381,84.68646,Dug Well,1.97
Andhra Pradesh,Srikakulam,Kanchili,Kanchili,Kanchili,18.983658,84.584677,Dug Well,5.2
Andhra Pradesh,Srikakulam,Kothabommali,Jarjangi,JarajangiDW2015,18.498953,84.132728,Dug Well,0.95
Andhra Pradesh,Srikakulam,Kothabommali,Tharli Bodapadu,Tharli Bodapadu ,18.558681,84.184184,Dug Well,3.2
,,,,DW13,,,,
Andhra Pradesh,Srikakulam,Kothuru,Kotturu,Kotturu-Alt,18.75,83.9,Dug Well,4.7
Andhra Pradesh,Srikakulam,Kunduru,Ponduru,Ponduru,18.35559,83.755279,Dug Well,2.1
Andhra Pradesh,Srikakulam,Laveru,Bejjipuram,Bejjipuram,18.233091,83.748019,Dug Well,1.2
Andhra Pradesh,Srikakulam,Mandasa,Haripuram,Haripuram,18.845492,84.505514,Dug Well,3.59
,,NAME,,,,,,LEVEL
,,,,,,,,(mbgl)
Andhra Pradesh,Srikakulam,Meliaputti,Jadupalli,JadupalliDW16,18.758404,84.233157,Dug Well,2.35
Andhra Pradesh,Srikakulam,Meliaputti,Meliaputti,Meliaputti,18.77424,84.173579,Dug Well,2.4
Andhra Pradesh,Srikakulam,Meliaputti,Pedda Padmapuram,Pedda Padmapuram,18.759528,84.162021,Dug Well,2.75
,,,,DW13,,,,
Andhra Pradesh,Srikakulam,Meliaputti,Sundarada,SundaradaDW2015,18.739432,84.134962,Dug Well,4.1
Andhra Pradesh,Srikakulam,Nandigaon,Nandigaon,Nandigaon-DW13,18.656344,84.298623,Dug Well,1.7
Andhra Pradesh,Srikakulam,Nandigaon,Pata Tekkali,Pata tekkali,18.630445,84.360113,Dug Well,1.92
Andhra Pradesh,Srikakulam,Palakonda,Palakonda,Palakonda,18.598121,83.765525,Dug Well,6.15
Andhra Pradesh,Srikakulam,Palakonda,Thumarada,ThumaradaDW16,18.608461,83.714339,Dug Well,6.2
Andhra Pradesh,Srikakulam,Palasa,Palasa,Palasa DW13,18.757042,84.417474,Dug Well,0.85
Andhra Pradesh,Srikakulam,Palasa,Veerbhadrapuram,Veerbhadrapuram-,18.730299,84.364058,Dug Well,2.4
,,,,DW13,,,,
Andhra Pradesh,Srikakulam,Patapatnam,Patapatnam,Patapatnam,18.751422,84.094085,Dug Well,3.9
Andhra Pradesh,Srikakulam,Polaki,Kalingapatnam,KalingapatnamAltDW,18.3428,84.1225,Dug Well,2.15
,,,,16,,,,
Andhra Pradesh,Srikakulam,Rajam,Rajam,Rajam,18.445991,83.653369,Dug Well,1.77
Andhra Pradesh,Srikakulam,Santabommali,Naupada,NaupadaDW2015,18.565053,84.299797,Dug Well,2.15
Andhra Pradesh,Srikakulam,Saravakota,Aldu,Aldu,18.578096,84.053644,Dug Well,2.45
Andhra Pradesh,Srikakulam,Seetampeta,Haddubangi,HaddubangiDW16,18.732,83.8257,Dug Well,4.2
Andhra Pradesh,Srikakulam,Seetampeta,Sitampeta,Sitampeta1,18.69251,83.817155,Dug Well,6.4
Andhra Pradesh,Srikakulam,Sompeta,Baruva,Baruva,18.881364,84.591524,Dug Well,2.31
Andhra Pradesh,Srikakulam,Sompeta,Korlam,Korlam-DW13,18.905896,84.554213,Dug Well,2.15
Andhra Pradesh,Srikakulam,Sompeta,Mamidipalli,MamidipalliDW2015,18.862675,84.547773,Dug Well,3.95
Andhra Pradesh,Srikakulam,Sompeta,Sompeta,Sompeta DW13,18.939097,84.585721,Dug Well,3.4
Andhra Pradesh,Srikakulam,Srikakulam,Arasavalli,Arasavalli-DW13,18.289035,83.915935,Dug Well,1.55
Andhra Pradesh,Srikakulam,Srikakulam,Patasrikakulam,Patasrikakulam,18.272688,83.905147,Dug Well,6.17
Andhra Pradesh,Srikakulam,Srikakulam,Peddapadu,PeddapaduDW16,18.315177,83.927259,Dug Well,3.95
Andhra Pradesh,Srikakulam,Srikakulam,Ragolu,Ragolu,18.34453,83.893456,Bore Well,2.95
Andhra Pradesh,Srikakulam,Tekkali,Tekkali,Tekkali,18.602182,84.237961,Dug Well,2.53
Andhra Pradesh,Srikakulam,Vajrapukothuru,Bendigetu,Bendigetu-DW13,18.718067,84.388303,Dug Well,3.1
,,NAME,,,,,,LEVEL
,,,,,,,,(mbgl)
Andhra Pradesh,Srikakulam,Vajrapukothuru,Tekkalipatnam,Tekkalipatnam,18.739414,84.3319,Dug Well,3.15
Andhra Pradesh,Srikakulam,Veeraghattam,Veeraghattam,Veeraghattam,18.686535,83.615328,Dug Well,1.71
Andhra Pradesh,Srikakulam,Veeraghattam,Veeraghattam,Veeraghattam-,18.68731,83.612342,Dug Well,3.7
,,,,AltDW16,,,,
Andhra Pradesh,Visakhapatnam,Anakapalle,Anakapalli,Anakapalli,17.680949,82.9817,Dug Well,1.79
Andhra Pradesh,Visakhapatnam,Anakapalle,Tallapalem,Tallapalem,17.633725,82.892147,Dug Well,0.94
Andhra Pradesh,Visakhapatnam,Anantagiri,Anantagiri,Anantagiri-DW13,18.2388,83.0011,Dug Well,4.37
Andhra Pradesh,Visakhapatnam,Anantagiri,Bangarammapeta,Bangarammapeta-,18.216,83.1019,Dug Well,4.17
,,,,DW13,,,,
Andhra Pradesh,Visakhapatnam,Anantagiri,Kottur,Kottur,18.2074,83.0743,Dug Well,4.1
Andhra Pradesh,Visakhapatnam,Anantagiri,Sunkarametta,Sunkarametta-DW13,18.2781,82.9684,Dug Well,8.9
Andhra Pradesh,Visakhapatnam,Bheemunipatnam,Bhimunipatnam-1,Bhimunipatnam-1,17.893016,83.453405,Dug Well,1.45
Andhra Pradesh,Visakhapatnam,Bheemunipatnam,Bhimunipatnam-2,Bhimunipatnam-2,17.887634,83.452065,Dug Well,5.1
Andhra Pradesh,Visakhapatnam,Buchchayyapeta,L Singavaram,L Singavaram-DW13,17.819361,82.837753,Dug Well,2.34
Andhra Pradesh,Visakhapatnam,Chintapalle,Lambasingi,Lambasingi1,17.8071,82.4959,Dug Well,1.86
Andhra Pradesh,Visakhapatnam,Chintapalle,Lotugadda Jn.,Lotugadda junction,17.8554,82.4361,Dug Well,0.61
Andhra Pradesh,Visakhapatnam,Chodavaram,Bangarumitta,Bangarumitta,17.838712,82.867819,Dug Well,2.76
Andhra Pradesh,Visakhapatnam,Dumbriguda,Aruku,Aruku,18.3207,82.8814,Dug Well,8.96
Andhra Pradesh,Visakhapatnam,Dumbriguda,Dimriguda,Dimriguda,18.2885,82.7921,Dug Well,10.1
Andhra Pradesh,Visakhapatnam,Golugonda,Mallampet,Mallampet,17.674045,82.448681,Dug Well,1
Andhra Pradesh,Visakhapatnam,Golugonda,Nagannadorapalem,Nagannadorapalem-,17.677338,82.494398,Dug Well,1.92
,,,,DW14,,,,
Andhra Pradesh,Visakhapatnam,Golugonda,Narsipatnam,Narsipatnam,17.676063,82.595643,Dug Well,2.5
Andhra Pradesh,Visakhapatnam,Gudem Kothaveedi,Gudem,Gudem,17.863,82.1957,Dug Well,2.73
Andhra Pradesh,Visakhapatnam,Hukumpet,Kontela,Kontela-DW13,18.1386,82.6878,Dug Well,4.25
Andhra Pradesh,Visakhapatnam,Hukumpet,Rangasheela,Rangasheela-DW13,18.2106,82.7788,Dug Well,1.03
Andhra Pradesh,Visakhapatnam,Kasimkota,Haripalem,Haripalem,17.609167,82.977843,Dug Well,6.6
,,NAME,,,,,,LEVEL
,,,,,,,,(mbgl)
Andhra Pradesh,Visakhapatnam,Kotauratla,Kotauratla,Kotauratla,17.564869,82.686647,Dug Well,2.85
Andhra Pradesh,Visakhapatnam,Kotauratla,Purshotta Puram,Purshotta Puram-alt2,17.502868,82.794094,Dug Well,1.72
Andhra Pradesh,Visakhapatnam,Kotauratla,Yendapalli,Yendapalli DW13,17.611237,82.649909,Dug Well,1.5
Andhra Pradesh,Visakhapatnam,Koyyuru,Koyyuru,Koyyuru1,17.6599,82.2194,Dug Well,1.66
Andhra Pradesh,Visakhapatnam,Koyyuru,Pata K.D.Peta,Pata K D Peta,17.6723,82.3619,Dug Well,1.33
Andhra Pradesh,Visakhapatnam,Nakkalli,Gurrajupeta,Gurrajupeta,17.400543,82.767981,Dug Well,2.15
Andhra Pradesh,Visakhapatnam,Paderu,Garikabanda,Garikabanda,17.9453,82.7566,Dug Well,1.33
Andhra Pradesh,Visakhapatnam,Paderu,Minimuluru,Minimuluru-DW13,18.0369,82.6999,Dug Well,8.73
Andhra Pradesh,Visakhapatnam,Paderu,Paderu,Paderu,18.0795,82.6735,Dug Well,7.44
Andhra Pradesh,Visakhapatnam,Paderu,Pontlamamidi,Vontlamamidi-DW13,17.9746,82.7334,Dug Well,1.9
Andhra Pradesh,Visakhapatnam,Peddabayalu,Gamparai,Gamparai-DW14,18.1825,82.6374,Dug Well,2.86
Andhra Pradesh,Visakhapatnam,Pendurti,Bandavaripalem,Bandavaripalem ,17.832418,83.229143,Dug Well,2.55
,,,,DW14,,,,
Andhra Pradesh,Visakhapatnam,Pendurti,Gurrampalem,Gurrampalem-DW14,17.841679,83.215241,Dug Well,1.97
Andhra Pradesh,Visakhapatnam,Pendurti,Pendurti,Pendurti,17.823467,83.208435,Dug Well,2.48
Andhra Pradesh,Visakhapatnam,Rambilli,Pudimadaka,Pudimadaka,17.4928,83.002363,Dug Well,2.1
Andhra Pradesh,Visakhapatnam,Ravikamatam,Kottakota,Kottakota-DW13,17.756201,82.7051,Dug Well,0.15
Andhra Pradesh,Visakhapatnam,Ravikamatam,Medivoda,Medivoda,17.784505,82.779134,Dug Well,2.54
Andhra Pradesh,Visakhapatnam,Rolugunta,Rolugunta,Rolugunta1,17.7129,82.6668,Dug Well,2.05
Andhra Pradesh,Visakhapatnam,S.Rayavaram,Addaroddu,Addaroddu,17.432028,82.747588,Dug Well,1.1
Andhra Pradesh,Visakhapatnam,S.Rayavaram,Rayavaram,Rayavaram,17.454764,82.802494,Dug Well,1.56
Andhra Pradesh,Visakhapatnam,S.Rayavaram,Revupolavaram,Revupolavaram,17.397155,82.81776,Dug Well,1.8
Andhra Pradesh,Visakhapatnam,Visakhapatnam(U),Kancherapalem,Kancherapalem ,17.739024,83.266858,Dug Well,5.45
,,,,2011U,,,,
Andhra Pradesh,Visakhapatnam,Visakhapatnam(U),Kotaveedhi,Kotaveedhi 2011U,17.6901,83.2919,Dug Well,5.2
Andhra Pradesh,Visakhapatnam,Visakhapatnam(U),Lawsons Bay,Lawsons Bay 2011U,17.73279,83.341715,Dug Well,2.83
,,NAME,,,,,,LEVEL
,,,,,,,,(mbgl)
Andhra Pradesh,Visakhapatnam,Visakhapatnam(U),"Peddagadili-Arilova 
Junct.","Peddagadili-Arilova 
Junct. 2011U",17.7577,83.3258,Dug Well,5.35
Andhra Pradesh,Visakhapatnam,Visakhapatnam(U),Pithapuram,Pithapuram 2011U,17.716983,83.326887,Dug Well,5.68
Andhra Pradesh,Visakhapatnam,Visakhapatnam(U),Potinamallayapalem,Potinamallayapalem ,17.802921,83.354195,Dug Well,14.2
,,,,2011U,,,,
Andhra Pradesh,Visakhapatnam,Visakhapatnam(U),Rishikonda,Rishikonda 2011U,17.780096,83.385126,Dug Well,2
Andhra Pradesh,Visakhapatnam,Visakhapatnam(U),Vepagunta,Vepagunta-DW14,17.775917,83.216775,Dug Well,3.02
Andhra Pradesh,Visakhapatnam,Visakhapatnam(U),Visakhapatnam(U),Akkireddipalem ,17.710432,83.205633,Bore Well,8.3
,,,,2010Pz,,,,
Andhra Pradesh,Visakhapatnam,Visakhapatnam(U),Visakhapatnam(U),Anandapuram,17.894765,83.37243,Bore Well,12.9
,,,,2010Pz,,,,
Andhra Pradesh,Visakhapatnam,Visakhapatnam(U),Visakhapatnam(U),Gopalapatnam ,17.759064,83.218604,Bore Well,4.45
,,,,2010Pz,,,,
Andhra Pradesh,Visakhapatnam,Visakhapatnam(U),Visalakshinagar,Visalakshinagar,17.754902,83.346895,Dug Well,1.85
,,,,2011U,,,,
Andhra Pradesh,Visakhapatnam,Yelamanchili,Yelamanchili,Yelamanchili,17.546346,82.855656,Dug Well,5.42
Andhra Pradesh,Vizianagaram,Badangi,Gajarayunivalasa,Gajarayunivalasa 18.4873 83.3283 Dug Well,,,,3.6
,,,,DW13,,,,
Andhra Pradesh,Vizianagaram,Badangi,Maradam,Maradam,18.403888,83.336821,Dug Well,2.15
Andhra Pradesh,Vizianagaram,Balijipeta,Balajipet,Balajipet,18.611327,83.528598,Dug Well,3.1
Andhra Pradesh,Vizianagaram,Balijipeta,Chilakalapalli,Chilakalapalli DW13,18.592974,83.53333,Dug Well,2.4
Andhra Pradesh,Vizianagaram,Balijipeta,Mirthivalasa,MirthivalasaDW16,18.62,83.48,Dug Well,3.15
Andhra Pradesh,Vizianagaram,Bhogapuram,Maharajupeta,MaharajupetaDW16,17.9507,83.4181,Dug Well,4.65
Andhra Pradesh,Vizianagaram,Bhogapuram,Rajapulova,Rajapulova-NQM,17.956383,83.419181,Bore Well,4.2
Andhra Pradesh,Vizianagaram,Bobbili,Bobbili,Bobbili,18.571164,83.348724,Dug Well,2.25
,,NAME,,,,,,LEVEL
,,,,,,,,(mbgl)
Andhra Pradesh,Vizianagaram,Bobbili,Vokadavalasa,"Vokadavalasa
2013DW",18.609076,83.423646,Dug Well,2.8
Andhra Pradesh,Vizianagaram,Bondapalle,Bondapalli,Bondapalli-DW13,18.2412,83.3463,Dug Well,2.1
Andhra Pradesh,Vizianagaram,Bondapalle,Bondapalli,Bondapalli-NQM,18.242856,83.345242,Bore Well,9.6
Andhra Pradesh,Vizianagaram,Bondapalle,Gotlam,Gotlam DW13,18.1636,83.3779,Dug Well,3.15
Andhra Pradesh,Vizianagaram,Dattirajera,Dattirajeru,Dattirajeru-DW13,18.371839,83.400438,Dug Well,2.32
Andhra Pradesh,Vizianagaram,Denkada,Denkada,Denkada-DW,18.0753,83.4789,Dug Well,3.9
Andhra Pradesh,Vizianagaram,Gantyada,Kondatamarapali,KondatamarapaliDW,18.162245,83.256196,Dug Well,1.75
,,,,2015,,,,
Andhra Pradesh,Vizianagaram,Gantyada,Narava,Narava-DW13,18.1373,83.3293,Dug Well,1.54
Andhra Pradesh,Vizianagaram,Gantyada,Tatipudi,Tatipudi-DW13,18.1695,83.1926,Dug Well,4.15
Andhra Pradesh,Vizianagaram,Garividi,Garividi,Garividi DW13,18.280215,83.528258,Dug Well,4.3
Andhra Pradesh,Vizianagaram,Garividi,Kapusambam,Kapusambam-DW13,18.344905,83.588946,Dug Well,1.65
Andhra Pradesh,Vizianagaram,Gurla,Kondagandredu,Kondagandredu- 18.2845 83.4531 Bore Well,,,,16.5
,,,,NQM,,,,
Andhra Pradesh,Vizianagaram,Gurla,Pedda Bantupalli,Pedda Bantupalli-,18.320006,83.494243,Bore Well,5.45
,,,,NQM,,,,
Andhra Pradesh,Vizianagaram,Jami,Alamanda,Alamanda DW13,17.994676,83.24301,Dug Well,1.65
Andhra Pradesh,Vizianagaram,Jami,Chinnaravupallidw,ChinnaravupalliDW2,17.96707,83.221776,Dug Well,1.3
,,,,015,,,,
Andhra Pradesh,Vizianagaram,Jami,Kumaran,KumaranDW16,18.046248,83.318846,Dug Well,4.6
Andhra Pradesh,Vizianagaram,Komarada,Gangaraivalasa,GangaraivalasaDW16,18.857785,83.457954,Dug Well,5.2
Andhra Pradesh,Vizianagaram,Komarada,Komarada,Komarada,18.898383,83.462461,Dug Well,7.4
Andhra Pradesh,Vizianagaram,Komarada,Vikrampuram,Vikrampuram-DW13,18.812108,83.445113,Dug Well,2.18
Andhra Pradesh,Vizianagaram,Kothavalasa,Kothavalasa,Kothavalasa1,17.8967,83.1856,Dug Well,1.81
Andhra Pradesh,Vizianagaram,Kurupam,Gumma,Gumma,18.958735,83.643853,Dug Well,2.14
Andhra Pradesh,Vizianagaram,Kurupam,Kurupana,Kurupana,18.866016,83.553036,Dug Well,5.3
Andhra Pradesh,Vizianagaram,Lakkavarapukota,Lakkavarapukota,Lakkavarapukota,17.967302,83.175471,Dug Well,1.95
Andhra Pradesh,Vizianagaram,Lakkavarapukota,Mallavedu,Mallavedu,18.025402,83.152063,Dug Well,2.63
,,NAME,,,,,,LEVEL
,,,,,,,,(mbgl)
Andhra Pradesh,Vizianagaram,Makkuva,Payakapadu,Payakapadu,18.646454,83.273074,Dug Well,1.95
Andhra Pradesh,Vizianagaram,Merakamudidam,Garbham,Garbham,18.369,83.4535,Dug Well,5.25
Andhra Pradesh,Vizianagaram,Parvatipuram,Parvatipuram,Parvatipuram1,18.772475,83.423747,Dug Well,3.58
Andhra Pradesh,Vizianagaram,Puspatirega,Kanimetta,Kanimetta,18.126246,83.588577,Dug Well,3.05
Andhra Pradesh,Vizianagaram,Puspatirega,Natavalasa,Natavalasa,18.062745,83.525397,Dug Well,5.35
Andhra Pradesh,Vizianagaram,Ramabhadrapuram,Tarapuramdw,TarapuramDW2015,18.502327,83.253779,Dug Well,2.65
Andhra Pradesh,Vizianagaram,Saluru,Saluru,Saluru,18.524491,83.207649,Dug Well,7.29
Andhra Pradesh,Vizianagaram,Saluru,Sanyasirajpeta,Sanyasirajpeta,18.5783,83.2397,Dug Well,3.2
,,,,2013DW,,,,
Andhra Pradesh,Vizianagaram,Seetanagaram,Appayyapet,Appayyapet DW13,18.677154,83.372468,Dug Well,3.2
Andhra Pradesh,Vizianagaram,Srungavarapukota,Gouripuram,Gouripuram DW13,18.155,83.1318,Dug Well,1.55
Andhra Pradesh,Vizianagaram,Srungavarapukota,S.Kota,S.kota,18.115942,83.137802,Dug Well,1.15
Andhra Pradesh,Vizianagaram,Therlam,Agraharam,Agraharam,18.462134,83.498205,Dug Well,2.4
Andhra Pradesh,Vizianagaram,Therlam,Kollivalasa,Kollivalasa 2013DW,18.522121,83.526977,Dug Well,0.85
Andhra Pradesh,Vizianagaram,Therlam,Locherladw,Locherladw2015,18.48406,83.534317,Dug Well,2.3
Andhra Pradesh,Vizianagaram,Vizianagaram,Vijayanagaram,Vijayanagaram,18.103877,83.393951,Dug Well,4.35
Andhra Pradesh,West Godavari,Akiveedu,Akiveedu,Akiveedu-DW14,16.583,81.3889,Dug Well,1.17
Andhra Pradesh,West Godavari,Attili,Attili,Attili-B,16.686,81.6052,Dug Well,2.57
Andhra Pradesh,West Godavari,Attili,Attili,Attili-NQM,16.6984,81.6176,Bore Well,21.18
Andhra Pradesh,West Godavari,Bhimavaram,Narsimhapuram,Narsimhapuram- 16.5582 81.5017 Dug Well,,,,1.14
,,,,DW14,,,,
Andhra Pradesh,West Godavari,Buttayagudem,Buttayagudem,Buttayagudem-,17.198837,81.318827,Dug Well,2.45
,,,,DW14,,,,
Andhra Pradesh,West Godavari,Buttayagudem,Gunjavaram,Gunjavaram-DW14,17.2036,81.4172,Dug Well,2.95
Andhra Pradesh,West Godavari,Buttayagudem,Polavaram,Polavaram-alt,17.25025,81.6457,Dug Well,5.68
Andhra Pradesh,West Godavari,Chintalapudi,Erraguntlapalli,Erraguntlapalli,17.14538,81.0098,Dug Well,4.97
Andhra Pradesh,West Godavari,Dwarakatirumala,Lakshmipuram,Lakshmipuram-,16.822449,81.057024,Dug Well,1.75
,,,,DW14,,,,
Andhra Pradesh,West Godavari,Eluru,Eluru,Eluru(Postal colony)-,16.710913,81.1102,Dug Well,4.1
,,,,DW14,,,,
,,NAME,,,,,,LEVEL
,,,,,,,,(mbgl)
Andhra Pradesh,West Godavari,Eluru,Eluru,Eluru-DW13,16.704245,81.085132,Dug Well,2.2
Andhra Pradesh,West Godavari,Eluru,Ipangadi,Ipangadi,17.0183,81.6484,Dug Well,1.39
Andhra Pradesh,West Godavari,Ganapavaram,Sarepalle,Sarepalle-DW14,16.6886,81.4654,Dug Well,2.95
Andhra Pradesh,West Godavari,Gopalapuram,Chityala,Chityala-DW14,17.0895,81.5966,Dug Well,2.5
Andhra Pradesh,West Godavari,Gopalapuram,Gopalpuram,Dondapudi-DW14,17.2097,81.544,Dug Well,8.25
Andhra Pradesh,West Godavari,Gopalapuram,Gopalpuram,Gopalpuram,17.1011,81.5482,Dug Well,3.01
Andhra Pradesh,West Godavari,Iragavaram,Gowrabalu,Gowrabalu-DW13,16.6983,81.6309,Dug Well,1.83
Andhra Pradesh,West Godavari,Iragavaram,Iragavaram,Iragavaram1-NQM,16.6906,81.7062,Bore Well,16.64
Andhra Pradesh,West Godavari,Iragavaram,Iragavaram,Iragavaram2-NQM,16.6906,81.7062,Bore Well,16.15
Andhra Pradesh,West Godavari,Iragavaram,Iragavaram,Iragavaram3-NQM,16.6906,81.7062,Bore Well,3.87
Andhra Pradesh,West Godavari,Iragavaram,Iragavaram,Iragavaram-NQM,16.6908,81.7069,Bore Well,6.34
Andhra Pradesh,West Godavari,Jangareddigudem,Koyyalagudem,Koyyalagudem DW12,17.123807,81.427034,Dug Well,10.3
Andhra Pradesh,West Godavari,Jangareddigudem,Pottalakatttugudem,Pottalakatttugudem-,16.936,81.253,Dug Well,2.9
,,,,DW13,,,,
Andhra Pradesh,West Godavari,Kamavarapukota,Kamavarapukota,Kamavarapukota1,17.008048,81.191217,Dug Well,2.1
Andhra Pradesh,West Godavari,Kovvuru,Kovvuru,Kovvuru-DW13,17.0036,81.7416,Dug Well,1.3
Andhra Pradesh,West Godavari,Koyyalagudem,Kanapuram,Kanapuram-DW14,17.1878,81.417559,Dug Well,3.5
Andhra Pradesh,West Godavari,Lingapalem,Dharmajigudem,Dharmajigudem1,16.893317,80.93496,Dug Well,8
Andhra Pradesh,West Godavari,Mogalturu,Kummarapurugu,Kummarapurugu ,16.3677,81.6038,Dug Well,0.56
,,,,2013DW,,,,
Andhra Pradesh,West Godavari,Mogalturu,Mogalturu,Mogalturu-DW13,16.4135,81.6142,Dug Well,1.15
Andhra Pradesh,West Godavari,Mogalturu,Perupalem,Perupalem 2013DW,16.378,81.5837,Dug Well,1.57
Andhra Pradesh,West Godavari,Narsapur,Narsapuram,Narsapuram,16.4323,81.6933,Dug Well,1.04
Andhra Pradesh,West Godavari,Narsapur,Narsapuram,Narsapuram1-NQM,16.4572,81.707,Bore Well,30.13
Andhra Pradesh,West Godavari,Narsapur,Narsapuram,Narsapuram2-NQM,16.4572,81.707,Bore Well,24.49
Andhra Pradesh,West Godavari,Nidadavole,Goparam,Goparam-DW13,16.916,81.6972,Dug Well,3.1
Andhra Pradesh,West Godavari,Nidadavole,Munipalli,Munipalli-DW13,16.8685,81.7101,Dug Well,0.74
Andhra Pradesh,West Godavari,Nidadavole,Munipalli,Munipalli-DW14,16.8549,81.7143,Dug Well,2.07
,,NAME,,,,,,LEVEL
,,,,,,,,(mbgl)
Andhra Pradesh,West Godavari,Nidadavole,Nidadavolu,Nidadavolu,16.8947,81.6746,Dug Well,1.31
Andhra Pradesh,West Godavari,Palakoderu,Garagaparru,Garagaparru,16.6072,81.5299,Dug Well,1.66
Andhra Pradesh,West Godavari,Palakoderu,Vissakoduru,Vissakoduru 2013DW,16.5505,81.5713,Dug Well,1.16
Andhra Pradesh,West Godavari,Palakol,Palakol,Palakol-DW14,16.5095,81.7194,Dug Well,0.22
Andhra Pradesh,West Godavari,Pentapadu,Pentapadu,Pentapadu-DW14,16.7858,81.5265,Dug Well,1.08
Andhra Pradesh,West Godavari,Penumandra,Penumandra,Penumandra-DW13,16.6457,81.6488,Dug Well,2.65
Andhra Pradesh,West Godavari,Penumandra,Polamuru,Polamuru-DW13 16.6162 81.6409 Dug Well,,,,1.4
Andhra Pradesh,West Godavari,Tallapudi,Tadipudi,Tadipudi1,17.1633,81.659,Dug Well,0.48
Andhra Pradesh,West Godavari,Tallapudi,Tallapudi,Tallapudi-DW13,17.124,81.6687,Dug Well,0.53
Andhra Pradesh,West Godavari,Tallapudi,Vegeswarapuram,Vegeswarapuram,17.1108,81.6735,Dug Well,2.55
Andhra Pradesh,West Godavari,Undi,Cherukuwada,Cherukuwada-DW14,16.586,81.4166,Dug Well,1.99
Andhra Pradesh,West Godavari,Undi,Pamulaparu,Pamulaparu-DW14,16.6322,81.4673,Dug Well,1.15
Andhra Pradesh,West Godavari,Undi,Undi,Undi,16.5862,81.4613,Dug Well,1.11
Andhra Pradesh,West Godavari,Unguturu,Rachuru,Rachuru 2013DW,16.77615,81.425629,Dug Well,2.95
Andhra Pradesh,West Godavari,Veeravasaram,Komuchikkala,Komuchikkala-NQM,16.592,81.7006,Bore Well,15.95
Andhra Pradesh,West Godavari,Veeravasaram,Veeravasaram,Veeravasaram,16.5417,81.606,Dug Well,1.8
Arunachal Pradesh Changlang,,Manmao-Jairampur,Jairampur,Jairampur,27.35609,96.014443,Dug Well,5.21
,,Circle,,,,,,
Arunachal Pradesh Changlang,,Miao Circle,Namchik,Namchik,27.414577,95.971986,Dug Well,4.73
Arunachal Pradesh Changlang,,Miao Circle,Namphai,Namphai,27.446084,96.10863,Dug Well,4.3
Arunachal Pradesh Changlang,,Miao Circle,Newlisan Kharsang,Newlisan Kharsang,27.426901,96.041802,Dug Well,6.01
Arunachal Pradesh,East Siang,Pasighat,Pasighat New,Pasighat New,28.0362222,95.33575,Dug Well,10.24
Arunachal Pradesh,East Siang,Pasighat,Satmile,Satmile,27.97672,95.33163,Dug Well,2.09
,,NAME,,,,,,LEVEL
,,,,,,,,(mbgl)
Arunachal Pradesh East Siang,,Ruksin,Oyan,Oyan,27.89022,95.31833,Dug Well,9.03
Arunachal Pradesh East Siang,,Ruksin,Ruksin,Ruksin,27.8377778,95.2181667,Dug Well,1.73
Arunachal Pradesh East Siang,,Ruksin,Sika Baman Todee,Sika Baman Todee,27.9133333,95.3436111,Dug Well,5.22
Arunachal Pradesh Lohit,,Namsai Circle,Lathow,Lathow,27.73948,95.909805,Dug Well,5.77
Arunachal Pradesh Lower Dibang Valley,,Roing,Kangklong,Kangklong,27.97171,95.75741,Dug Well,11.02
Arunachal Pradesh Lower Subansiri,,Tamen-Raga,Bomte,Bomte,27.8166667,94.3166667,Dug Well,1.53
Arunachal Pradesh Lower Subansiri,,Tamen-Raga,Rajgarh,Rajgarh,27.40475,94.15225,Dug Well,5.27
Arunachal Pradesh Papumpare,,Balijan,Banderedewa,Banderedewa I,27.1052778,93.8258333,Dug Well,11.47
Arunachal Pradesh Papumpare,,Balijan,Holangi New,Holangi New,26.96228,93.59205,Dug Well,2.86
Arunachal Pradesh Papumpare,,Balijan,Sonajuli,Sonajuli,27.0281389,93.7413056,Dug Well,2.48
Arunachal Pradesh Papumpare,,Doimukh,Chimpu,Chimpu,27.07,93.6,Dug Well,3.12
Arunachal Pradesh Papumpare,,Doimukh,Doimukh,Doimukh,27.15,93.75,Dug Well,1.14
Arunachal Pradesh Papumpare,,Doimukh,Naharlagun,Naharlagun I,27.1030556,93.6947222,Dug Well,6.1
Arunachal Pradesh Papumpare,,Doimukh,Nirjuli Villia,Nirjuli Vill IIA,27.1311111,93.7330556,Dug Well,0.05
Arunachal Pradesh Papumpare,,Doimukh,Nirjuli Villib,Nirjuli Vill IIB,27.13,93.7336111,Dug Well,0.56
Arunachal Pradesh Papumpare,,Doimukh,Papu Nallah,Papu Nallah,27.0986,93.66948,Dug Well,3.81
,,NAME,,,,,,LEVEL
,,,,,,,,(mbgl)
Arunachal Pradesh Papumpare,,Kimin,Kimin New ,Kimin New ,27.30428,93.97071,Dug Well,0.82
Arunachal Pradesh Tirap,,Deomali Circle,Deomali,Deomali,27.196588,95.462758,Dug Well,4.35
Arunachal Pradesh Tirap,,Khonsa Circle,Borduria,Borduria,27.115189,95.413139,Dug Well,5.11
Arunachal Pradesh Tirap,,Khonsa Circle,Hukanjuri,Hukanjuri,27.125802,95.437686,Dug Well,7.67
Assam,Baksa,Baksa,Shripur Deor,Shripur Deor,26.618,91.344,Dug Well,2.48
Assam,Baksa,Barama,Pub Bengabari,Pub Bengabari,26.679,91.347,Dug Well,3.79
Assam,Baksa,Jalah,Bangalipara,Bangalipara,26.715,91.712,Dug Well,4.09
Assam,Baksa,Jalah,Chapla,Chapla,26.734,91.711,Dug Well,8.44
Assam,Baksa,Jalah,Deusunga ,Deusunga ,26.757,91.708,Dug Well,16.42
,,,Ambarishnagar,Ambarishnagar,,,,
Assam,Baksa,Jalah,Gyati Gaon,Gyati Gaon,26.659346,90.999152,Dug Well,3.77
Assam,Baksa,Jalah,Naukata,Naukata,26.637,91.726,Dug Well,2.13
Assam,Baksa,Sarupeta,Charaimari,Charaimari,26.677,91.294,Dug Well,3.75
Assam,Baksa,Tamulpur,Jhargaon,Jhargaon,26.5680556,91.5866667,Dug Well,2.54
Assam,Baksa,Tamulpur,Kumarikata,Kumarikata,26.7313889,91.5558333,Dug Well,3.64
Assam,Baksa,Tamulpur,Tamulpur,Tamulpur,26.61,91.58,Dug Well,3.2
Assam,Barpeta,Bhawanipur,Sarupeta,Sarupeta,26.4480278,91.0748056,Dug Well,3.42
Assam,Barpeta,Chakchaka,Sorbhog,Sorbhog,26.4724722,90.8806944,Dug Well,3.5
Assam,Barpeta,Jalah,Simla,Simla,26.6833333,91.2166667,Dug Well,2.2
Assam,Barpeta,Jalah,Ujanborbori,Ujanborbori,26.5605,91.0962222,Dug Well,3.2
Assam,Bongaigaon,Baitamari,Baitamari,Baitamari,26.4474444,90.5172778,Dug Well,4.67
Assam,Bongaigaon,Baitamari,North Salmara,North salmara,26.3583333,90.6166667,Dug Well,3.87
Assam,Bongaigaon,Borkhola,Medhipara(Deo),Medhipara(Deo),26.3069444,90.6541667,Dug Well,3.5
Assam,Bongaigaon,Dangtol,Bongaigaon New,Bongaigaon New,26.4916667,90.55,Dug Well,3.2
Assam,Bongaigaon,Dangtol,Chalantapara,Chalantapara,26.2377778,90.5916667,Dug Well,8.64
Assam,Bongaigaon,Dangtol,Chaprakata ,Chaprakata ,26.4872222,90.6333333,Dug Well,2.67
,,,(Dankinamari),(Dankinamari),,,,
Assam,Bongaigaon,Dangtol,Majgaon,Majgaon,26.4188889,90.5908333,Dug Well,3.45
,,NAME,,,,,,LEVEL
,,,,,,,,(mbgl)
Assam,Bongaigaon,Manikpur,Manikpur,Manikpur,26.4666667,90.8083333,Dug Well,3.3
Assam,Bongaigaon,Srijan Gram,Abhayapuri New,Abhayapuri New,26.4406917,90.6554306,Dug Well,4.1
Assam,Cachar,Borjalinga,Dwarbond,Dwarbond,24.5841667,92.0166667,Dug Well,5.7
Assam,Cachar,Borjalinga,Kathaltila,Kathaltila,25.3516333,91.3940472,Dug Well,2.71
Assam,Cachar,Borjalinga,Silcoorie,Silcoorie,24.7183333,92.7769444,Dug Well,3.8
Assam,Cachar,Elara,Digharkhal,Digharkhal,24.9888889,92.5,Dug Well,4.66
Assam,Cachar,Jaipur,Poilapul,Poilapul,24.8361111,93.0319444,Dug Well,1.78
Assam,Cachar,Jaipur,Tarapur,Tarapur,24.8297222,92.9791667,Dug Well,0.15
Assam,Cachar,Kalain,Kalain,Kalain,24.9722222,92.5833333,Dug Well,2.7
Assam,Cachar,Katigora,Katigora,Katigora,24.8869444,92.5888889,Dug Well,1.63
Assam,Cachar,Lakhipur,Badribasti,Badribasti,24.8097222,92.8916667,Dug Well,3.88
Assam,Cachar,Lakhipur,Borjalinga,Borjalinga,24.5583333,92.8,Dug Well,0.2
Assam,Cachar,Lakhipur,Fulertol,Fulertol,24.7902778,93.0052778,Dug Well,3.77
Assam,Cachar,Lakhipur,Shivtila,Shivtila,24.8333333,93.0041667,Dug Well,4.25
Assam,Cachar,Meharpur,Atalbasti,Atalbasti,24.9680556,92.5752778,Dug Well,5.93
Assam,Cachar,Norsinghpur,Nagdirgram,Nagdirgram,24.68,92.88,Dug Well,1.31
Assam,Cachar,Palangat,Palanghat,Palanghat,24.6525,92.8861111,Dug Well,1.6
Assam,Cachar,Razabazar,Razabazar,Razabazar,24.8666667,93.05,Dug Well,3.21
Assam,Cachar,Sonapur,Borkhola,Borkhola,24.9388889,92.7416667,Dug Well,1.72
Assam,Cachar,Udarband,Moinarbond,Moinarbond,24.8797222,92.8847222,Dug Well,5.18
Assam,Chirang,Bengtol,Garubassa,Garubassa,26.5583333,90.3833333,Dug Well,3.64
Assam,Chirang,Chakchaka,Bijni,Bijni,26.4916667,90.7083333,Dug Well,3.2
Assam,Chirang,Sidli,Deosiri,Deosiri,26.7666667,90.4666667,Dug Well,8.29
Assam,Chirang,Sidli,Sidli,Sidli,26.5333333,90.4666667,Dug Well,3.39
Assam,Chirang,Srijangram,Runikhata,Runikhata,26.6333333,90.3833333,Dug Well,3.4
Assam,Darrang,Bechimari,Dalgaon,Dalgaon,26.5561111,92.1987222,Dug Well,3.99
Assam,Darrang,Bechimari,Silbori,Silbori,26.6127222,92.2901111,Dug Well,3.28
Assam,Darrang,Bhakatpara,Konakat,Konakat,26.533,92.191,Dug Well,10.02
Assam,Darrang,Kalaigaon,Bhakatpara Ow,Bhakatpara Ow,26.5388889,92.0777778,Tube Well,4.18
Assam,Darrang,Paschim Mangaldai,Mangaldoi,Mangaldoi,26.4314444,92.017,Dug Well,4.62
,,NAME,,,,,,LEVEL
,,,,,,,,(mbgl)
Assam,Darrang,Paschim Mangaldai,Mangaldoi Ii,Mangaldoi II,26.4229167,92.0003333,Dug Well,3.38
Assam,Darrang,Pathorighat,Malibaritari,Malibaritari,26.4735,91.7947778,Dug Well,3.77
Assam,Dhemaji,Bordoloni,Bordoloni,Bordoloni,27.4133611,94.4271944,Dug Well,0.45
Assam,Dhemaji,Bordoloni,Gogamukh Hss Ow,Gogamukh Hss Ow,27.4305556,94.2625,Tube Well,2.8
Assam,Dhemaji,Dhemaji,Bokabil Ow,Bokabil Ow,27.5231111,94.5224444,Tube Well,2.45
Assam,Dhemaji,Dhemaji,Dhemaji,Dhemaji,27.5116667,94.5877778,Dug Well,1.39
Assam,Dhemaji,Dhemaji,Santipur,Santipur,27.5552778,94.505,Dug Well,2.45
Assam,Dhemaji,Murkongselek,Bhagaban Charali,Bhagaban charali,27.7098056,94.8566389,Dug Well,9.28
Assam,Dhemaji,Murkongselek,Dekapam,Dekapam,27.7489444,94.9221944,Dug Well,1.77
Assam,Dhemaji,Murkongselek,Jonai Murkongselek,Jonai murkongselek,27.8366667,95.1466667,Dug Well,2.02
Assam,Dhemaji,Murkongselek,Telem,Telem,27.7125,95.0555556,Dug Well,3.16
Assam,Dhemaji,Sisibargaon,Siripani,Siripani,27.5827778,94.65,Dug Well,1.42
Assam,Dhemaji,Sisibargaon,Sisibargaon,Sisibargaon,27.5416667,94.7222222,Dug Well,1.75
Assam,Dhubri,Chapar Salkocha,Bahalpur New,Bahalpur New,26.3071861,90.4634889,Dug Well,2.5
Assam,Dhubri,Chapar Salkocha,Chapar,Chapar,26.2768889,90.4468611,Dug Well,5.2
Assam,Dhubri,Chapar Salkocha,Shapamari Beat,Shapamari Beat,26.2384444,90.3750556,Dug Well,16.7
Assam,Dhubri,Chapar Salkocha,Sonamukhi,Sonamukhi,26.2073611,90.29625,Dug Well,2.87
Assam,Dhubri,Debatoli,Matabag Ow,Matabag ow,26.0947222,89.9848056,Tube Well,5.01
Assam,Dhubri,Debatoli,Panbari,Panbari,26.1564722,90.0548889,Dug Well,17.4
Assam,Dhubri,Gauripur,Dhubri Town,Dhubri Town,26.0166667,89.9833333,Dug Well,4.4
Assam,Dhubri,Goakanj,Dakhin Tokesara,Dakhin Tokesara,26.1076389,89.8392222,Dug Well,4.2
Assam,Dhubri,Golakganj,Moterjhar,Moterjhar,26.1277778,89.875,Dug Well,3.83
Assam,Dhubri,Gossaigaon,Tamarhat,Tamarhat,26.3022056,89.8502361,Dug Well,3.4
Assam,Dhubri,Hatidhura,Bilasipara,Bilasipara,26.2166667,90.2303333,Dug Well,3.86
Assam,Dhubri,Mahamaya,Bagaribari,Bagaribari,26.2136389,90.1200833,Dug Well,14.45
Assam,Dibrugarh,Barbaruah,Barbaruah,Barbaruah,27.398723,94.878716,Dug Well,4.32
Assam,Dibrugarh,Khowang,Azarguri Gaon,Azarguri gaon,27.2616667,94.8902778,Dug Well,3.29
Assam,Dibrugarh,Lahoal,Dikom,Dikom,27.459971,95.069151,Dug Well,5.68
Assam,Dibrugarh,Panitola,Chabua,Chabua,27.493129,95.189518,Dug Well,5.41
Assam,East Karbi Anglong,Bokajan,Amlokhi,Amlokhi,25.9611111,93.4886111,Dug Well,1.89
,,NAME,,,,,,LEVEL
,,,,,,,,(mbgl)
Assam,East Karbi Anglong,Bokajan,Balipathar,Balipathar,26.1569444,93.8,Dug Well,2.11
Assam,East Karbi Anglong,Bokajan,Bokajan I,Bokajan I,26.1422222,93.8527778,Dug Well,11.59
Assam,East Karbi Anglong,Bokajan,Bokajan Ii,Bokajan II,26.0272222,93.7633333,Dug Well,3.4
Assam,East Karbi Anglong,Bokajan,Deopani,Deopani,26.2208333,93.8422222,Dug Well,11.68
Assam,East Karbi Anglong,Bokajan,Dillai,Dillai,25.9625,93.585,Dug Well,3.86
Assam,East Karbi Anglong,Bokajan,Ghouria Dhubi,Ghouria Dhubi,26.0052449,93.7683585,Dug Well,3.86
Assam,East Karbi Anglong,Bokajan,Hidipi,Hidipi,26.0186111,93.6336111,Dug Well,8.06
Assam,East Karbi Anglong,Bokajan,Khatkhati,Khatkhati,25.9772222,93.7625,Dug Well,3.99
Assam,East Karbi Anglong,Bokajan,Lahorijan,Lahorijan,25.9069444,93.6611111,Dug Well,7.37
Assam,East Karbi Anglong,Bokajan,Lakhijan,Lakhijan,26.0505556,93.7480556,Dug Well,5.79
Assam,East Karbi Anglong,Bokajan,Manja Bus Stand,Manja Bus Stand,25.97,93.4372222,Dug Well,3.05
Assam,East Karbi Anglong,Bokajan,Manja Ow,Manja OW,25.9667,93.4382,Tube Well,2.06
Assam,East Karbi Anglong,Bokajan,Mohendijua,Mohendijua,25.9944444,93.4108333,Dug Well,5.86
Assam,East Karbi Anglong,Bokajan,Saphapani,Saphapani,26.1966667,93.7952778,Dug Well,3.99
Assam,East Karbi Anglong,Bokajan,Terangaon,Terangaon,26.0172222,93.3816667,Dug Well,2.33
Assam,East Karbi Anglong,Diphu,Adarakha Tiniali,Adarakha Tiniali,26.1175,93.785,Dug Well,1.16
Assam,East Karbi Anglong,Howraghat,Langhing,Langhing,26.2027778,93.1336111,Dug Well,3.66
Assam,East Karbi Anglong,Howraghat,Phuloni,Phuloni,26.1708333,93.1366667,Dug Well,2.1
Assam,East Karbi Anglong,Howraghat,Swarghati,Swarghati,26.2027778,93.1063889,Dug Well,2.67
Assam,East Karbi Anglong,Langsomepi,Bokoliaghat,Bokoliaghat,26.0636111,93.185,Dug Well,3.97
Assam,East Karbi Anglong,Langsomepi,Dishobai,Dishobai,26.0636111,93.185,Dug Well,1.48
Assam,East Karbi Anglong,Langsomepi,Phonglangso,Phonglangso,26.0094444,93.2622222,Dug Well,5.14
Assam,East Karbi Anglong,Langsomepi,Bokulia,Bokulia,26.0588889,93.1905556,Dug Well,1.02
Assam,East Karbi Anglong,Lumbajong,Diphu (Lumding Road),Diphu (lumding,25.8344444,93.4066667,Dug Well,20.34
,,,,Road),,,,
Assam,East Karbi Anglong,Lumbajong,Diphu(Matibung Road),Diphu(matibung,25.8461111,93.4447222,Dug Well,3.89
,,,,Road),,,,
Assam,East Karbi Anglong,Manikpur,Manikpur,Manikpur,26.2497222,93.1463889,Dug Well,1.3
Assam,East Karbi Anglong,Samelangso,Dengaon,Dengaon,26.2125,92.9747222,Dug Well,3.5
Assam,East Karbi Anglong,Samelangso,Dokmoka,Dokmoka,26.2083333,93.0655556,Dug Well,1.23
Assam,Goalpara,Balijan,Bhalukdubi (Goalpara),Bhalukdubi,26.13021,90.5955,Dug Well,7.18
,,,,(Goalpara),,,,
,,NAME,,,,,,LEVEL
,,,,,,,,(mbgl)
Assam,Goalpara,Balijan,Dwarka,Dwarka,25.0566667,90.4952778,Dug Well,2.45
Assam,Goalpara,Balijan,Teuli,Teuli,26.07332,90.51291,Dug Well,4.8
Assam,Goalpara,Balijana,Agia,Agia,26.082717,90.564122,Dug Well,2.15
Assam,Goalpara,Kashdhowa,Damra,Damra,25.93166,90.77327,Dug Well,6.7
Assam,Goalpara,Kashdhowa,Dudhnai,Dudhnai,25.9808333,90.7816667,Dug Well,2.66
Assam,Goalpara,Kashdhowa,Dudhnoi Ii,Dudhnoi II,25.9519444,90.7730556,Dug Well,5.48
Assam,Goalpara,Kashdhowa,Pattarpara,Pattarpara,25.9677778,90.9063889,Dug Well,2.8
Assam,Goalpara,Krishnai,Krishnai New,Krishnai New,26.0347222,90.6616667,Dug Well,3.1
Assam,Goalpara,Krishnai,Salpara,Salpara,26.0127778,90.7008333,Dug Well,5.01
Assam,Goalpara,Lakhipur,Baida,Baida,26.0258333,90.4163889,Dug Well,2.92
Assam,Goalpara,Rongjuli,Rongjuli,Rongjuli,25.9694444,90.925,Dug Well,3.01
Assam,Goalpara,Rongjuli,Sarapara,Sarapara,25.9713889,90.9525,Dug Well,3.2
Assam,Golaghat,Dergaon,Garigaon,Garigaon,26.4480556,93.9716667,Dug Well,2.49
Assam,Golaghat,Golaghat Central,Butalikua,Butalikua,26.5816667,93.87,Dug Well,2.97
Assam,Golaghat,Golaghat Central,Dakkhin Hengra,dakkhin hengra,26.567611,94.061567,Dug Well,2.28
Assam,Golaghat,Golaghat East,Oating,Oating,26.4333333,94.0083333,Dug Well,5.16
Assam,Golaghat,Golaghat South,Garampani,Garampani,26.3927778,93.8802778,Dug Well,5.57
Assam,Golaghat,Golakghat West,Bokakhat1,Bokakhat1,26.6372222,94.6277778,Dug Well,3.65
Assam,Golaghat,Golakghat West,Haldibari Buri Ai,Haldibari Buri Ai,26.5858333,93.3258333,Dug Well,3.61
Assam,Golaghat,Golakghat West,Kohra Kaziranga,Kohra kaziranga,26.6166667,93.4583333,Dug Well,8.77
Assam,Golaghat,Golakghat West,Upper Merapani,Upper Merapani,26.30372,94.08711,Dug Well,5.33
Assam,Hailakandi,Algapur,Panchgram New,Panchgram New,24.8583333,92.6005556,Dug Well,7.63
Assam,Hailakandi,Katlicherra,Katlicherra N,Katlicherra N,24.4513889,92.6194444,Dug Well,1.11
Assam,Hailakandi,Kwarpar,Burakhai,Burakhai,24.6291667,92.6747222,Dug Well,0.36
Assam,Hailakandi,Lakhinagar,Lakhinagar,Lakhinagar,24.6030556,92.5311111,Dug Well,2.45
Assam,Hailakandi,Lala,Lala,Lala,24.5977778,92.5619444,Dug Well,3.58
Assam,Hojai,Doboka,Tirchang,Tirchang,26.1377,92.8117,Dug Well,3.89
Assam,Hojai,Doboka,Zebra Khua,Zebra Khua,26.1389,92.8087,Dug Well,2.88
Assam,Hojai,Lanka,Lanka,Lanka,26.1880556,92.7361111,Dug Well,5.08
Assam,Hojai,Lanka,Lumding,Lumding,25.76854,93.17361,Dug Well,4.13
Assam,Jorhat,Jorhat,Bijay Nagar,Bijay Nagar,26.7225,94.1772222,Dug Well,1.82
Assam,Jorhat,Jorhat,Lichubari,Lichubari,26.7272222,94.2105556,Dug Well,1.06
,,NAME,,,,,,LEVEL
,,,,,,,,(mbgl)
Assam,Jorhat,Jorhat,Meleng Kaparadharia,Meleng Kaparadharia,26.7902778,94.3022222,Dug Well,1.07
Assam,Jorhat,Jorhat ,Kunwari Pukhuri,Kunwari Pukhuri,26.6983333,94.2069444,Dug Well,3.37
Assam,Jorhat,Jorhat East,Cinemora,Cinemora,26.7094444,94.2163889,Dug Well,3.4
Assam,Jorhat,Jorhat East,Dabarapara Charali,Dabarapara charali,26.6666667,94.4083333,Dug Well,2.52
Assam,Jorhat,Jorhat East,Gatisunga,Gatisunga,26.6788889,94.3852778,Dug Well,1.67
Assam,Jorhat,Jorhat North West,Kokilamukh,Kokilamukh,26.8186111,94.1716667,Dug Well,2.5
Assam,Jorhat,Teok,Kamarbandha,Kamarbandha,26.66,94.1313889,Dug Well,1.53
Assam,Jorhat,Titabor,Sodial Kacharigaon,Sodial Kacharigaon,26.5066667,94.1569444,Dug Well,1.93
Assam,Jorhat,Titabor,Titabor,Titabor,26.6,94.2083333,Dug Well,1.91
Assam,Kamrup,Bejera,Dhobartari,Dhobartari,26.2481944,91.69025,Dug Well,1.98
Assam,Kamrup,Bejera,Dora Kahara,Dora Kahara,26.2898889,91.7121111,Dug Well,2.8
Assam,Kamrup,Boko,Boko,Boko,25.9833333,91.245,Dug Well,5.96
Assam,Kamrup,Chaygaon,Bamunigaon1,Bamunigaon1,26.0208333,91.3277778,Dug Well,4.12
Assam,Kamrup,Chaygaon,Chhaygaon,Chhaygaon,26.0411111,91.3597222,Dug Well,5.18
Assam,Kamrup,Chaygaon,Mirza,Mirza,26.0930556,91.5472222,Dug Well,7.36
Assam,Kamrup,Dimoria,Kachkatchi,Kachkatchi,26.28,92.265,Dug Well,1.6
Assam,Kamrup,Hajo,Abhaipur,Abhaipur,26.2541667,91.5583333,Dug Well,1.15
Assam,Kamrup,Rangia,Darkuchi,Darkuchi,26.5412778,91.6025556,Dug Well,4.04
Assam,Kamrup,Rangia,Rangia New,Rangia new,26.4375894,91.6236425,Dug Well,3.9
Assam,Kamrup,Rani,Rani,Rani,26.041181,91.586329,Dug Well,3.42
Assam,Kamrup,Rani,Rani Ii,Rani II,26.065058,91.606055,Dug Well,2.83
Assam,Kamrup,Rongjuli,Rajapara,Rajapara,25.9441667,91.1180556,Dug Well,2.43
Assam,Kamrup,Sualkuchi,Sualkuchi,Sualkuchi,26.1674444,91.5708333,Dug Well,1.47
Assam,Kamrup Metro,Bejera,Dirgheswari,Dirgheswari,26.2383333,91.7427778,Dug Well,3.39
Assam,Kamrup Metro,Dispur,Samanta Pathar,Samanta Pathar,26.1188889,91.98,Dug Well,2.46
Assam,Kamrup Metro,Dispur,Sonapur,Sonapur,26.1177778,91.9638889,Dug Well,1.62
Assam,Kamrup Metro,Dispur,Sonapur Ii,Sonapur II,26.1191667,91.9633333,Dug Well,1.8
Assam,Kamrup Metro,Dispur,Topatoli,Topatoli,26.1244444,91.9494444,Dug Well,2.99
Assam,Kamrup Metro,Dispur,Topatoli New,Topatoli New,26.1030556,92.1433333,Dug Well,2.39
Assam,Kamrup Metro,North Guwahati,Amingaon,Amingaon,26.1917778,91.61475,Dug Well,3.18
,,NAME,,,,,,LEVEL
,,,,,,,,(mbgl)
Assam,Karimganj,Algapur,Badarpur,Badarpur,24.8666667,92.5666667,Dug Well,2.76
Assam,Karimganj,Dullavcherra,Sarkaribari,Sarkaribari,24.5625,92.4138889,Dug Well,1.1
Assam,Karimganj,Hatikira,Hatikira,Hatikira,24.4333333,92.2916667,Dug Well,1.59
Assam,Karimganj,Kaliganj,Kalinagar,Kalinagar,24.5841667,92.4836111,Dug Well,1.32
Assam,Karimganj,Kaliganj,Kayasthagram,Kayasthagram,24.7208333,92.3463889,Dug Well,0.78
Assam,Karimganj,Karimganja Urban,Karmganj,Karmganj,24.865,92.3636111,Dug Well,1.1
Assam,Karimganj,Patharkandi,Dhaulia,Dhaulia,24.6416667,92.3541667,Dug Well,0.22
Assam,Karimganj,Patharkandi,Patharkandi,Patharkandi,24.5969444,92.3205556,Dug Well,1.53
Assam,Karimganj,R.K. Nagar,Rk Nagar I,Rk Nagar I,24.5388889,92.4833333,Dug Well,1.49
Assam,Kokrajhar,Dotoma,Dotma,Dotma,26.4916667,90.1583333,Dug Well,4.45
Assam,Kokrajhar,Dotoma,Serfanguri,Serfanguri,26.5691667,90.15,Dug Well,2.87
Assam,Kokrajhar,Dotoma,Ultapani,Ultapani,26.825,90.2555556,Dug Well,7.1
Assam,Kokrajhar,Hatidhura,Srirampur Forest ,Srirampur forest ,26.4333694,89.9025389,Dug Well,4.87
,,,Range Office,range office,,,,
Assam,Kokrajhar,Kachugaon,Kachugaon,Kachugaon,26.5666667,90.0666667,Dug Well,4.3
Assam,Kokrajhar,Kokrajhar,Amguri,Amguri,24.71344,92.4951,Dug Well,6.21
Assam,Kokrajhar,Kokrajhar,Bisumari,Bisumari,26.5666667,90.3,Dug Well,4.71
Assam,Kokrajhar,Rupshi,Balajan,Balajan,26.0972222,89.8869444,Dug Well,5.4
Assam,Kokrajhar,Rupshi,Rupshi,Rupshi,26.1180556,89.9225556,Dug Well,5.3
Assam,Kokrajhar,Sidli,Gossaigaon,Gossaigaon,26.4416667,89.9666667,Dug Well,3.23
Assam,Lakhimpur,Bihpuria,Bihpuria,Bihpuria,27.0333333,93.9083333,Dug Well,2.71
Assam,Lakhimpur,Boginadi,Boginadi Balijan New,Boginadi balijan new,27.38356,94.18895,Dug Well,1.63
Assam,Lakhimpur,Boginadi,Borbil Tariyani,Borbil Tariyani,27.4028611,94.1746111,Dug Well,1.83
Assam,Lakhimpur,Boginadi,Kadam,Kadam,27.3,94.15,Dug Well,1.35
Assam,Lakhimpur,Boginadi,Milanpur,Milanpur,27.4374444,94.2981944,Dug Well,2.35
Assam,Lakhimpur,Boginadi,Moridirgha,Moridirgha,27.3234722,94.1356389,Dug Well,1.28
Assam,Lakhimpur,Boginadi,Pathalipam,Pathalipam,27.4476944,94.2300278,Dug Well,3.16
Assam,Lakhimpur,Boginadi,Pathalipam Ii,Pathalipam II,27.44,94.21,Dug Well,3.84
Assam,Lakhimpur,Dhakuakhana,Basudeothan,Basudeothan,27.2181389,94.3344722,Dug Well,3.17
Assam,Lakhimpur,Karunabari,Amguri,Amguri,27.0473056,93.94725,Dug Well,4.34
Assam,Lakhimpur,Karunabari,Harmoti,Harmoti,27.1228889,93.8539444,Dug Well,2.67
,,NAME,,,,,,LEVEL
,,,,,,,,(mbgl)
Assam,Lakhimpur,Karunabari,Laluk,Laluk,27.11975,93.9301667,Dug Well,1.68
Assam,Lakhimpur,Lakhimpur,Dejoo,Dejoo,27.2716389,94.0252972,Dug Well,1.84
Assam,Lakhimpur,Lakhimpur,Panigaon,Panigaon,27.1374444,94.1106667,Dug Well,2.63
Assam,Lakhimpur,Naoboisa,Dolanghat Chara,Dolanghat chara,27.1633056,93.9984167,Dug Well,2.04
Assam,Lakhimpur,Narayanpur,Bhogpur Charali,Bhogpur charali,27.0465556,93.83275,Dug Well,1.82
Assam,Lakhimpur,Narayanpur,Madhupur,Madhupur,27.0423611,93.8104444,Dug Well,1.27
Assam,Lakhimpur,Narayanpur,Narayanpur,Narayanpur,26.9535,93.8549444,Dug Well,2.85
Assam,Morigaon,Barhampur,Daponibari N,Daponibari N,26.1438889,92.3741667,Dug Well,2.73
Assam,Morigaon,Bhuragaon,Barukati,Barukati,26.3988889,92.2322222,Dug Well,2
Assam,Morigaon,Bhurbandha,Basanaghat ,Basanaghat ,26.2580556,92.3116667,Dug Well,2.89
Assam,Morigaon,Kopili,Silsang Namghar,Silsang Namghar,26.1216667,92.3508333,Dug Well,2.29
Assam,Morigaon,Mayong,Deosal,Deosal,26.1263889,92.2525,Dug Well,4.76
Assam,Morigaon,Mayong,Jagiroad,Jagiroad,26.1166667,92.1666667,Dug Well,3.71
Assam,Morigaon,Mayong,Pamibaghara,Pamibaghara,26.240898,92.26362,Dug Well,3.69
Assam,Morigaon,Moirabari,Miarabari New,Miarabari New,26.4536111,92.4116667,Dug Well,4.77
Assam,Morigaon,Morigaon,Garmari Gaon,Garmari gaon,26.2630556,92.2236111,Dug Well,3.89
Assam,Morigaon,Morigaon,Kumoi,Kumoi,26.1936111,92.2452778,Dug Well,0.9
Assam,Morigaon,Morigaon,Nelle New,Nelle New,26.9625,92.7027778,Dug Well,6.69
Assam,Nagaon,Barhampur,Hatenibatha,Hatenibatha,26.3361111,92.7613889,Dug Well,2.43
Assam,Nagaon,Batadraba,Bordowa,Bordowa,26.4055556,92.5416667,Dug Well,1.4
Assam,Nagaon,Dhalapukhri,Jurapukhuri,Jurapukhuri,25.9652778,92.9436111,Dug Well,5.46
Assam,Nagaon,Jugijan,Haldiati Sub Bt,Haldiati sub bt,26.1725,92.9433333,Dug Well,2.62
Assam,Nagaon,Kadamtala,Silghat,Silghat,26.6069444,92.9291667,Dug Well,5.73
Assam,Nagaon,Kaliabor,Bagori,Bagori,26.55,93.25,Dug Well,2.86
Assam,Nagaon,Kaliabor,Dalapani,Dalapani,26.5669444,92.8622222,Dug Well,2.45
Assam,Nagaon,Kaliabor,Kazirang Tourist Vil,Kazirang Tourist Vil,26.5858333,93.395,Dug Well,8.64
Assam,Nagaon,Kaliabor,Sulung P.O.,Sulung p.o.,26.5702778,92.8730556,Dug Well,2.95
Assam,Nagaon,Kampur,Phulaguri,Phulaguri,26.2672222,92.5858333,Dug Well,1.45
Assam,Nagaon,Kathiatoli,Bichamari,Bichamari,26.4013889,92.46,Dug Well,1.91
Assam,Nagaon,Kathiatoli,Dhing,Dhing,26.78,92.7997222,Dug Well,3.01
Assam,Nagaon,Kathiatoli,Doboka,Doboka,26.1319444,92.8880556,Dug Well,2.16
,,NAME,,,,,,LEVEL
,,,,,,,,(mbgl)
Assam,Nagaon,Kathiatoli,Kathiatoli,Kathiatoli,26.1880556,92.7027778,Dug Well,1.16
Assam,Nagaon,Kathiatoli,Kondali,Kondali,26.2205556,92.7708333,Dug Well,2.89
Assam,Nagaon,Kopili,Amsoi,Amsoi,26.1361111,92.4216667,Dug Well,3.2
Assam,Nagaon,Lanka,Nadeorigaon,Nadeorigaon,26.1508333,92.6572222,Dug Well,1.52
Assam,Nagaon,Missa,Naltali,Naltali,26.5494444,92.8936111,Dug Well,1.81
Assam,Nagaon,Nagaon,Bamuni Tinali,Bamuni tinali,26.2952778,92.7925,Dug Well,1.19
Assam,Nagaon,Nagaon,Telia Bebejia,Telia bebejia,26.4411111,92.64,Dug Well,2.13
Assam,Nagaon,Rupohi,Gomotha,Gomotha,26.3455556,92.7486111,Dug Well,2.99
Assam,Nalbari,Barkhetri,Daulasal,Daulasal,26.2709722,91.22075,Dug Well,4.2
Assam,Nalbari,Dhamdhama,Dhamdhama,Dhamdhama,26.5561111,91.4525,Dug Well,1.96
Assam,Nalbari,Dhamdhama,Mithabari,Mithabari,26.7616667,91.3916667,Dug Well,11.49
Assam,Nalbari,Lanka,Dumnibazar,Dumnibazar,26.5916667,91.315,Dug Well,2.8
Assam,Nalbari,Nalbari,Aithabari,Aithabari,26.7347222,91.3583333,Dug Well,2.48
Assam,Nalbari,Tihu,Tihu,Tihu,26.475,91.2575,Dug Well,1.99
Assam,Sibsagar,Demow,Bandarmari,Bandarmari,27.1958333,94.7486111,Dug Well,2.25
Assam,Sibsagar,Demow,Demow Sukan,Demow Sukan,27.1458333,94.7472222,Dug Well,4.42
Assam,Sibsagar,Sapekhati,Sapekhati,Sapekhati,27.0833333,95.2,Dug Well,3.23
Assam,Sonitpur,Baghmara,Borgang New ,Borgang New ,26.834557,93.294645,Dug Well,2.9
,,,(Koherbari),(Koherbari),,,,
Assam,Sonitpur,Balipara,18Th Mile,18th Mile,26.8141667,92.8344167,Dug Well,2.17
Assam,Sonitpur,Balipara,Balipara,Balipara,26.8230556,92.7818611,Dug Well,1.74
Assam,Sonitpur,Balipara,Charduar,Charduar,26.8545833,92.7802222,Dug Well,3.21
Assam,Sonitpur,Barchola,Barchola,Barchola,26.6054167,92.3801667,Dug Well,2.13
